{"data": {"bikes": [{"bike_id": "7ad3e5a10a4d34efc8a8e2555ee8bd3c", "lat": 38.91034833333333, "type": "electric_scooter", "rental_uris": {"android": "https://dc.lft.to/lastmile_qr_scan", "ios": "https://dc.lft.to/lastmile_qr_scan"}, "lon": -77.03795783333334, "name": "7ad3e5a10a4d34efc8a8e2555ee8bd3c", "is_disabled": 0, "is_reserved": 0}, {"bike_id": "fe4efcbae0923b6be26a75d7f5c4ef26", "lat": 38.908883333333335, "type": "electric_bike", "rental_uris": {"android": "https://dc.lft.to/lastmile_qr_scan", "ios": "https://dc.lft.to/lastmile_qr_scan"}, "lon": -77.02297816666666, "name": "fe4efcbae0923b6be26a75d7f5c4ef26", "is_disabled": 0, "is_reserved": 0}, {"bike_id": "6f17851e67318414a9946afd73d6e3e2", "lat": 38.92194766666667, "type": "electric_scooter", "rental_uris": {"android": "https://dc.lft.to/lastmile_qr_scan", "ios": "https://dc.lft.to/lastmile_qr_scan"}, "lon": -77.04349466666666, "name": "6f17851e67318414a9946afd73d6e3e2", "is_disabled": 0, "is_reserved": 0}, {"bike_id": "2917f2cb939cfd8140d9554a091392fe", "lat": 38.91002116666667, "type": "electric_scooter", "rental_uris": {"android": "https://dc.lft.to/lastmile_qr_scan", "ios": "https://dc.lft.to/lastmile_qr_scan"}, "lon": -76.984208, "name": "2917f2cb939cfd8140d9554a091392fe", "is_disabled": 0, "is_reserved": 0}, {"bike_id": "6a2fc1fb921836be0be46415b7ab94f3", "lat": 38.8576105, "type": "electric_bike", "rental_uris": {"android": "https://dc.lft.to/lastmile_qr_scan", "ios": "https://dc.lft.to/lastmile_qr_scan"}, "lon": -76.99296116666666, "name": "6a2fc1fb921836be0be46415b7ab94f3", "is_disabled": 0, "is_reserved": 0}, {"bike_id": "44175928f7c872608c94232cd3a6d380", "lat": 38.9140855, "type": "electric_scooter", "rental_uris": {"android": "https://dc.lft.to/lastmile_qr_scan", "ios": "https://dc.lft.to/lastmile_qr_scan"}, "lon": -77.03102116666666, "name": "44175928f7c872608c94232cd3a6d380", "is_disabled": 0, "is_reserved": 0}, {"bike_id": "8206625c32b95ff17f5aa176bfe06381", "lat": 38.89550333333333, "type": "electric_scooter", "rental_uris": {"android": "https://dc.lft.to/lastmile_qr_scan", "ios": "https://dc.lft.to/lastmile_qr_scan"}, "lon": -77.02169816666667, "name": "8206625c32b95ff17f5aa176bfe06381", "is_disabled": 0, "is_reserved": 0}, {"bike_id": "e08a5216cde23a4600bc3dccf8b264b3", "lat": 38.85211433333333, "type": "electric_bike", "rental_uris": {"android": "https://dc.lft.to/lastmile_qr_scan", "ios": "https://dc.lft.to/lastmile_qr_scan"}, "lon": -76.98049933333333, "name": "e08a5216cde23a4600bc3dccf8b264b3", "is_disabled": 0, "is_reserved": 0}, {"bike_id": "e6982ae908afe02d718d5956f567d130", "lat": 38.9267975, "type": "electric_scooter", "rental_uris": {"android": "https://dc.lft.to/lastmile_qr_scan", "ios": "https://dc.lft.to/lastmile_qr_scan"}, "lon": -77.0285795, "name": "e6982ae908afe02d718d5956f567d130", "is_disabled": 0, "is_reserved": 0}, {"bike_id": "d60e5ed1f7f4d51b4bb1a52007f12faa", "lat": 38.87068583333333, "type": "electric_bike", "rental_uris": {"android": "https://dc.lft.to/lastmile_qr_scan", "ios": "https://dc.lft.to/lastmile_qr_scan"}, "lon": -77.01232016666667, "name": "d60e5ed1f7f4d51b4bb1a52007f12faa", "is_disabled": 0, "is_reserved": 0}, {"bike_id": "6ee21ee884eb00e008eda03a216f53eb", "lat": 38.9094515, "type": "electric_scooter", "rental_uris": {"android": "https://dc.lft.to/lastmile_qr_scan", "ios": "https://dc.lft.to/lastmile_qr_scan"}, "lon": -77.02883133333333, "name": "6ee21ee884eb00e008eda03a216f53eb", "is_disabled": 0, "is_reserved": 0}, {"bike_id": "a8b8f4655f56b06d7d28e078e701e969", "lat": 38.925182, "type": "electric_scooter", "rental_uris": {"android": "https://dc.lft.to/lastmile_qr_scan", "ios": "https://dc.lft.to/lastmile_qr_scan"}, "lon": -77.05482683333334, "name": "a8b8f4655f56b06d7d28e078e701e969", "is_disabled": 0, "is_reserved": 0}, {"bike_id": "2382f6092a9443b190b4f5b00daae3d3", "lat": 38.912694333333334, "type": "electric_scooter", "rental_uris": {"android": "https://dc.lft.to/lastmile_qr_scan", "ios": "https://dc.lft.to/lastmile_qr_scan"}, "lon": -77.04489416666667, "name": "2382f6092a9443b190b4f5b00daae3d3", "is_disabled": 0, "is_reserved": 0}, {"bike_id": "ef66fdb11cd9d03a974fb5e1c09156df", "lat": 38.8285755, "type": "electric_bike", "rental_uris": {"android": "https://dc.lft.to/lastmile_qr_scan", "ios": "https://dc.lft.to/lastmile_qr_scan"}, "lon": -77.09191166666666, "name": "ef66fdb11cd9d03a974fb5e1c09156df", "is_disabled": 0, "is_reserved": 0}, {"bike_id": "a4ef144db86ac1585f31c3853f8e467a", "lat": 38.873245, "type": "electric_scooter", "rental_uris": {"android": "https://dc.lft.to/lastmile_qr_scan", "ios": "https://dc.lft.to/lastmile_qr_scan"}, "lon": -77.00157366666667, "name": "a4ef144db86ac1585f31c3853f8e467a", "is_disabled": 0, "is_reserved": 0}, {"bike_id": "8d12f1300002411a887b561894504a52", "lat": 38.874504, "type": "electric_scooter", "rental_uris": {"android": "https://dc.lft.to/lastmile_qr_scan", "ios": "https://dc.lft.to/lastmile_qr_scan"}, "lon": -76.9715565, "name": "8d12f1300002411a887b561894504a52", "is_disabled": 0, "is_reserved": 0}, {"bike_id": "8befba550243f5a92b3946b2ced927c7", "lat": 38.93347983333334, "type": "electric_scooter", "rental_uris": {"android": "https://dc.lft.to/lastmile_qr_scan", "ios": "https://dc.lft.to/lastmile_qr_scan"}, "lon": -77.02517266666666, "name": "8befba550243f5a92b3946b2ced927c7", "is_disabled": 0, "is_reserved": 0}, {"bike_id": "9f044e1b4a651ba9274232db58079d58", "lat": 38.892225833333335, "type": "electric_scooter", "rental_uris": {"android": "https://dc.lft.to/lastmile_qr_scan", "ios": "https://dc.lft.to/lastmile_qr_scan"}, "lon": -77.04464016666667, "name": "9f044e1b4a651ba9274232db58079d58", "is_disabled": 0, "is_reserved": 0}, {"bike_id": "4de2bfa65b295e0ddcdb07495db72b6c", "lat": 38.91973733333333, "type": "electric_scooter", "rental_uris": {"android": "https://dc.lft.to/lastmile_qr_scan", "ios": "https://dc.lft.to/lastmile_qr_scan"}, "lon": -76.9925535, "name": "4de2bfa65b295e0ddcdb07495db72b6c", "is_disabled": 0, "is_reserved": 0}, {"bike_id": "a7047cd28f375dea59030f4907983e91", "lat": 38.9064385, "type": "electric_scooter", "rental_uris": {"android": "https://dc.lft.to/lastmile_qr_scan", "ios": "https://dc.lft.to/lastmile_qr_scan"}, "lon": -77.02796916666667, "name": "a7047cd28f375dea59030f4907983e91", "is_disabled": 0, "is_reserved": 0}, {"bike_id": "f150a6e5dd2c1e5b35f07f97d43d6209", "lat": 38.880966666666666, "type": "electric_bike", "rental_uris": {"android": "https://dc.lft.to/lastmile_qr_scan", "ios": "https://dc.lft.to/lastmile_qr_scan"}, "lon": -76.9274665, "name": "f150a6e5dd2c1e5b35f07f97d43d6209", "is_disabled": 0, "is_reserved": 0}, {"bike_id": "892e2326aefa1f6e103cb196fa99dc13", "lat": 38.90863483333333, "type": "electric_scooter", "rental_uris": {"android": "https://dc.lft.to/lastmile_qr_scan", "ios": "https://dc.lft.to/lastmile_qr_scan"}, "lon": -76.99791083333334, "name": "892e2326aefa1f6e103cb196fa99dc13", "is_disabled": 0, "is_reserved": 0}, {"bike_id": "c57c671b1a085f75f8a4063265ace27e", "lat": 38.860699833333335, "type": "electric_bike", "rental_uris": {"android": "https://dc.lft.to/lastmile_qr_scan", "ios": "https://dc.lft.to/lastmile_qr_scan"}, "lon": -77.05709933333333, "name": "c57c671b1a085f75f8a4063265ace27e", "is_disabled": 0, "is_reserved": 0}, {"bike_id": "de0032a35145b16fac0c9eefc7d23ff2", "lat": 38.9285765, "type": "electric_scooter", "rental_uris": {"android": "https://dc.lft.to/lastmile_qr_scan", "ios": "https://dc.lft.to/lastmile_qr_scan"}, "lon": -77.03220483333334, "name": "de0032a35145b16fac0c9eefc7d23ff2", "is_disabled": 0, "is_reserved": 0}, {"bike_id": "f869806694623856dae65f82d515b652", "lat": 38.900128333333335, "type": "electric_scooter", "rental_uris": {"android": "https://dc.lft.to/lastmile_qr_scan", "ios": "https://dc.lft.to/lastmile_qr_scan"}, "lon": -77.03198166666667, "name": "f869806694623856dae65f82d515b652", "is_disabled": 0, "is_reserved": 0}, {"bike_id": "2744c7ded5a43ecb653f6c810608a8e1", "lat": 38.902246, "type": "electric_scooter", "rental_uris": {"android": "https://dc.lft.to/lastmile_qr_scan", "ios": "https://dc.lft.to/lastmile_qr_scan"}, "lon": -77.03130583333333, "name": "2744c7ded5a43ecb653f6c810608a8e1", "is_disabled": 0, "is_reserved": 0}, {"bike_id": "67cd717090e9897cb693a64f67e6d000", "lat": 38.87209283333333, "type": "electric_scooter", "rental_uris": {"android": "https://dc.lft.to/lastmile_qr_scan", "ios": "https://dc.lft.to/lastmile_qr_scan"}, "lon": -76.97335016666666, "name": "67cd717090e9897cb693a64f67e6d000", "is_disabled": 0, "is_reserved": 0}, {"bike_id": "ac4ce8e7bdae6f34148b7493ba6833ba", "lat": 38.922200833333335, "type": "electric_scooter", "rental_uris": {"android": "https://dc.lft.to/lastmile_qr_scan", "ios": "https://dc.lft.to/lastmile_qr_scan"}, "lon": -77.03515683333333, "name": "ac4ce8e7bdae6f34148b7493ba6833ba", "is_disabled": 0, "is_reserved": 0}, {"bike_id": "52d61d04a06e2a3de85e89171c3488b1", "lat": 38.87784933333333, "type": "electric_scooter", "rental_uris": {"android": "https://dc.lft.to/lastmile_qr_scan", "ios": "https://dc.lft.to/lastmile_qr_scan"}, "lon": -76.99512033333333, "name": "52d61d04a06e2a3de85e89171c3488b1", "is_disabled": 0, "is_reserved": 0}, {"bike_id": "3b87e160bccd525bd4dc44b117743f70", "lat": 38.911442, "type": "electric_scooter", "rental_uris": {"android": "https://dc.lft.to/lastmile_qr_scan", "ios": "https://dc.lft.to/lastmile_qr_scan"}, "lon": -77.026812, "name": "3b87e160bccd525bd4dc44b117743f70", "is_disabled": 0, "is_reserved": 0}, {"bike_id": "90b7e825abf951837ec6a33df57c4c67", "lat": 38.914461333333335, "type": "electric_scooter", "rental_uris": {"android": "https://dc.lft.to/lastmile_qr_scan", "ios": "https://dc.lft.to/lastmile_qr_scan"}, "lon": -76.98544566666666, "name": "90b7e825abf951837ec6a33df57c4c67", "is_disabled": 0, "is_reserved": 0}, {"bike_id": "1baa6f2ab029ff72e35a3c0b0aa56a2b", "lat": 38.909111, "type": "electric_scooter", "rental_uris": {"android": "https://dc.lft.to/lastmile_qr_scan", "ios": "https://dc.lft.to/lastmile_qr_scan"}, "lon": -77.02295633333334, "name": "1baa6f2ab029ff72e35a3c0b0aa56a2b", "is_disabled": 0, "is_reserved": 0}, {"bike_id": "f8510136543e704aa72659f7208a72c8", "lat": 39.05449016666667, "type": "electric_bike", "rental_uris": {"android": "https://dc.lft.to/lastmile_qr_scan", "ios": "https://dc.lft.to/lastmile_qr_scan"}, "lon": -77.11718033333334, "name": "f8510136543e704aa72659f7208a72c8", "is_disabled": 0, "is_reserved": 0}, {"bike_id": "e42e2ccddc531aabb6ad3ca53fdeb5df", "lat": 38.937812, "type": "electric_bike", "rental_uris": {"android": "https://dc.lft.to/lastmile_qr_scan", "ios": "https://dc.lft.to/lastmile_qr_scan"}, "lon": -76.92470933333334, "name": "e42e2ccddc531aabb6ad3ca53fdeb5df", "is_disabled": 0, "is_reserved": 0}, {"bike_id": "73d42e99e58c1a542733f53c5a880a07", "lat": 38.89409633333333, "type": "electric_bike", "rental_uris": {"android": "https://dc.lft.to/lastmile_qr_scan", "ios": "https://dc.lft.to/lastmile_qr_scan"}, "lon": -76.92299833333334, "name": "73d42e99e58c1a542733f53c5a880a07", "is_disabled": 0, "is_reserved": 0}, {"bike_id": "c6d0057af865c1528b6465a123405ec6", "lat": 38.9856975, "type": "electric_bike", "rental_uris": {"android": "https://dc.lft.to/lastmile_qr_scan", "ios": "https://dc.lft.to/lastmile_qr_scan"}, "lon": -77.040249, "name": "c6d0057af865c1528b6465a123405ec6", "is_disabled": 0, "is_reserved": 0}, {"bike_id": "9851b602061374d4dab136517f3d2ca6", "lat": 38.92946083333333, "type": "electric_bike", "rental_uris": {"android": "https://dc.lft.to/lastmile_qr_scan", "ios": "https://dc.lft.to/lastmile_qr_scan"}, "lon": -77.03671083333333, "name": "9851b602061374d4dab136517f3d2ca6", "is_disabled": 0, "is_reserved": 0}, {"bike_id": "87577beb25c774895ba9a01953e34b41", "lat": 38.93739883333333, "type": "electric_bike", "rental_uris": {"android": "https://dc.lft.to/lastmile_qr_scan", "ios": "https://dc.lft.to/lastmile_qr_scan"}, "lon": -77.06366916666667, "name": "87577beb25c774895ba9a01953e34b41", "is_disabled": 0, "is_reserved": 0}, {"bike_id": "d65f5cc888b18d047fec8c7ad1734121", "lat": 38.93149483333333, "type": "electric_scooter", "rental_uris": {"android": "https://dc.lft.to/lastmile_qr_scan", "ios": "https://dc.lft.to/lastmile_qr_scan"}, "lon": -77.04060983333333, "name": "d65f5cc888b18d047fec8c7ad1734121", "is_disabled": 0, "is_reserved": 0}, {"bike_id": "c03ef33947015a7d3989ebed7ce7a444", "lat": 38.8709005, "type": "electric_scooter", "rental_uris": {"android": "https://dc.lft.to/lastmile_qr_scan", "ios": "https://dc.lft.to/lastmile_qr_scan"}, "lon": -77.007596, "name": "c03ef33947015a7d3989ebed7ce7a444", "is_disabled": 0, "is_reserved": 0}, {"bike_id": "dd54eb8cf06161a3ef5a155c340e43f6", "lat": 38.91794316666667, "type": "electric_scooter", "rental_uris": {"android": "https://dc.lft.to/lastmile_qr_scan", "ios": "https://dc.lft.to/lastmile_qr_scan"}, "lon": -77.0260495, "name": "dd54eb8cf06161a3ef5a155c340e43f6", "is_disabled": 0, "is_reserved": 0}, {"bike_id": "eb43b09affc9963a69094a3a98f4a81f", "lat": 38.9271735, "type": "electric_bike", "rental_uris": {"android": "https://dc.lft.to/lastmile_qr_scan", "ios": "https://dc.lft.to/lastmile_qr_scan"}, "lon": -76.96127633333333, "name": "eb43b09affc9963a69094a3a98f4a81f", "is_disabled": 0, "is_reserved": 0}, {"bike_id": "f1418403bf5e4a47e84ce03b7efa1f01", "lat": 38.86872733333333, "type": "electric_scooter", "rental_uris": {"android": "https://dc.lft.to/lastmile_qr_scan", "ios": "https://dc.lft.to/lastmile_qr_scan"}, "lon": -76.99012216666667, "name": "f1418403bf5e4a47e84ce03b7efa1f01", "is_disabled": 0, "is_reserved": 0}, {"bike_id": "b28ae27964a4674b2e447f26b7720c2d", "lat": 38.912715, "type": "electric_scooter", "rental_uris": {"android": "https://dc.lft.to/lastmile_qr_scan", "ios": "https://dc.lft.to/lastmile_qr_scan"}, "lon": -77.0416375, "name": "b28ae27964a4674b2e447f26b7720c2d", "is_disabled": 0, "is_reserved": 0}, {"bike_id": "94d87a12c3bf9b3bc209af3be2e45f74", "lat": 38.90378466666667, "type": "electric_scooter", "rental_uris": {"android": "https://dc.lft.to/lastmile_qr_scan", "ios": "https://dc.lft.to/lastmile_qr_scan"}, "lon": -77.0164095, "name": "94d87a12c3bf9b3bc209af3be2e45f74", "is_disabled": 0, "is_reserved": 0}, {"bike_id": "c0a0c387a53d33e9480f1be18050c935", "lat": 38.89723466666667, "type": "electric_bike", "rental_uris": {"android": "https://dc.lft.to/lastmile_qr_scan", "ios": "https://dc.lft.to/lastmile_qr_scan"}, "lon": -76.885464, "name": "c0a0c387a53d33e9480f1be18050c935", "is_disabled": 0, "is_reserved": 0}, {"bike_id": "d13eef9aff36f4e80125204fca7e9e3c", "lat": 38.91640366666667, "type": "electric_scooter", "rental_uris": {"android": "https://dc.lft.to/lastmile_qr_scan", "ios": "https://dc.lft.to/lastmile_qr_scan"}, "lon": -77.041132, "name": "d13eef9aff36f4e80125204fca7e9e3c", "is_disabled": 0, "is_reserved": 0}, {"bike_id": "655ecb81b235b22fa439ac6f68ab3533", "lat": 38.98763833333334, "type": "electric_scooter", "rental_uris": {"android": "https://dc.lft.to/lastmile_qr_scan", "ios": "https://dc.lft.to/lastmile_qr_scan"}, "lon": -77.02589733333333, "name": "655ecb81b235b22fa439ac6f68ab3533", "is_disabled": 0, "is_reserved": 0}, {"bike_id": "c1dd216360c93bcfa0b6983543fd50a2", "lat": 38.9564365, "type": "electric_bike", "rental_uris": {"android": "https://dc.lft.to/lastmile_qr_scan", "ios": "https://dc.lft.to/lastmile_qr_scan"}, "lon": -77.02305383333334, "name": "c1dd216360c93bcfa0b6983543fd50a2", "is_disabled": 0, "is_reserved": 0}, {"bike_id": "3443be6ac3c4640b9131c6e33e211459", "lat": 38.8634525, "type": "electric_bike", "rental_uris": {"android": "https://dc.lft.to/lastmile_qr_scan", "ios": "https://dc.lft.to/lastmile_qr_scan"}, "lon": -76.98709783333334, "name": "3443be6ac3c4640b9131c6e33e211459", "is_disabled": 0, "is_reserved": 0}, {"bike_id": "9ea41be71ab20cd66f3f51a0d29a0f4b", "lat": 38.90407, "type": "electric_scooter", "rental_uris": {"android": "https://dc.lft.to/lastmile_qr_scan", "ios": "https://dc.lft.to/lastmile_qr_scan"}, "lon": -77.06459616666666, "name": "9ea41be71ab20cd66f3f51a0d29a0f4b", "is_disabled": 0, "is_reserved": 0}, {"bike_id": "1dbb161cfa4aefc4c5c060eef0aaa6ac", "lat": 38.93918983333333, "type": "electric_scooter", "rental_uris": {"android": "https://dc.lft.to/lastmile_qr_scan", "ios": "https://dc.lft.to/lastmile_qr_scan"}, "lon": -77.0605905, "name": "1dbb161cfa4aefc4c5c060eef0aaa6ac", "is_disabled": 0, "is_reserved": 0}, {"bike_id": "7955a5a8eb683e7465e168dba0a9d524", "lat": 38.93772233333333, "type": "electric_bike", "rental_uris": {"android": "https://dc.lft.to/lastmile_qr_scan", "ios": "https://dc.lft.to/lastmile_qr_scan"}, "lon": -77.01910116666667, "name": "7955a5a8eb683e7465e168dba0a9d524", "is_disabled": 0, "is_reserved": 0}, {"bike_id": "717df7169877101d4ce056bad8efc772", "lat": 38.913552833333334, "type": "electric_scooter", "rental_uris": {"android": "https://dc.lft.to/lastmile_qr_scan", "ios": "https://dc.lft.to/lastmile_qr_scan"}, "lon": -77.01784883333333, "name": "717df7169877101d4ce056bad8efc772", "is_disabled": 0, "is_reserved": 0}, {"bike_id": "d80069e1d7f30762e214708fa7d4a43a", "lat": 38.91564433333333, "type": "electric_scooter", "rental_uris": {"android": "https://dc.lft.to/lastmile_qr_scan", "ios": "https://dc.lft.to/lastmile_qr_scan"}, "lon": -76.995057, "name": "d80069e1d7f30762e214708fa7d4a43a", "is_disabled": 0, "is_reserved": 0}, {"bike_id": "8a2006efd78c69e7be52b9ab4b6d6acd", "lat": 38.91057466666667, "type": "electric_scooter", "rental_uris": {"android": "https://dc.lft.to/lastmile_qr_scan", "ios": "https://dc.lft.to/lastmile_qr_scan"}, "lon": -77.06012616666666, "name": "8a2006efd78c69e7be52b9ab4b6d6acd", "is_disabled": 0, "is_reserved": 0}, {"bike_id": "529ef804e18fbc71d0309d19260be30d", "lat": 38.989545, "type": "electric_scooter", "rental_uris": {"android": "https://dc.lft.to/lastmile_qr_scan", "ios": "https://dc.lft.to/lastmile_qr_scan"}, "lon": -77.026028, "name": "529ef804e18fbc71d0309d19260be30d", "is_disabled": 0, "is_reserved": 0}, {"bike_id": "cc32ce478420f093860f4c0a5b9b8413", "lat": 38.91707666666667, "type": "electric_scooter", "rental_uris": {"android": "https://dc.lft.to/lastmile_qr_scan", "ios": "https://dc.lft.to/lastmile_qr_scan"}, "lon": -77.02670966666666, "name": "cc32ce478420f093860f4c0a5b9b8413", "is_disabled": 0, "is_reserved": 0}, {"bike_id": "98fda534fffc748f764681f239aa9740", "lat": 38.91985416666667, "type": "electric_scooter", "rental_uris": {"android": "https://dc.lft.to/lastmile_qr_scan", "ios": "https://dc.lft.to/lastmile_qr_scan"}, "lon": -77.02819, "name": "98fda534fffc748f764681f239aa9740", "is_disabled": 0, "is_reserved": 0}, {"bike_id": "03570eca1a0b040f9ac4b3319ed73c0a", "lat": 38.90973366666667, "type": "electric_scooter", "rental_uris": {"android": "https://dc.lft.to/lastmile_qr_scan", "ios": "https://dc.lft.to/lastmile_qr_scan"}, "lon": -77.04063916666667, "name": "03570eca1a0b040f9ac4b3319ed73c0a", "is_disabled": 0, "is_reserved": 0}, {"bike_id": "a19065568ba11cb151d11e19f50cb44e", "lat": 38.97559583333334, "type": "electric_scooter", "rental_uris": {"android": "https://dc.lft.to/lastmile_qr_scan", "ios": "https://dc.lft.to/lastmile_qr_scan"}, "lon": -76.99555983333333, "name": "a19065568ba11cb151d11e19f50cb44e", "is_disabled": 0, "is_reserved": 0}, {"bike_id": "1589eb9d8abbf45a8182b1d10133a777", "lat": 39.01566433333333, "type": "electric_bike", "rental_uris": {"android": "https://dc.lft.to/lastmile_qr_scan", "ios": "https://dc.lft.to/lastmile_qr_scan"}, "lon": -77.1028905, "name": "1589eb9d8abbf45a8182b1d10133a777", "is_disabled": 0, "is_reserved": 0}, {"bike_id": "f62861e07ea86498df3db816d846ed90", "lat": 38.886215666666665, "type": "electric_scooter", "rental_uris": {"android": "https://dc.lft.to/lastmile_qr_scan", "ios": "https://dc.lft.to/lastmile_qr_scan"}, "lon": -76.9961915, "name": "f62861e07ea86498df3db816d846ed90", "is_disabled": 0, "is_reserved": 0}, {"bike_id": "5aefcb1df88c21cf6ecece772956ff00", "lat": 38.892238, "type": "electric_scooter", "rental_uris": {"android": "https://dc.lft.to/lastmile_qr_scan", "ios": "https://dc.lft.to/lastmile_qr_scan"}, "lon": -77.031104, "name": "5aefcb1df88c21cf6ecece772956ff00", "is_disabled": 0, "is_reserved": 0}, {"bike_id": "990619b1cb4c13b54d6533d560bf61a5", "lat": 38.8972035, "type": "electric_scooter", "rental_uris": {"android": "https://dc.lft.to/lastmile_qr_scan", "ios": "https://dc.lft.to/lastmile_qr_scan"}, "lon": -77.031804, "name": "990619b1cb4c13b54d6533d560bf61a5", "is_disabled": 0, "is_reserved": 0}, {"bike_id": "88c25cb635c8b3cc94b344c42c29f9c5", "lat": 38.943746833333336, "type": "electric_scooter", "rental_uris": {"android": "https://dc.lft.to/lastmile_qr_scan", "ios": "https://dc.lft.to/lastmile_qr_scan"}, "lon": -77.060967, "name": "88c25cb635c8b3cc94b344c42c29f9c5", "is_disabled": 0, "is_reserved": 0}, {"bike_id": "c9aadd9f03466edd4d6d5d3118fc6216", "lat": 38.9013945, "type": "electric_scooter", "rental_uris": {"android": "https://dc.lft.to/lastmile_qr_scan", "ios": "https://dc.lft.to/lastmile_qr_scan"}, "lon": -76.980724, "name": "c9aadd9f03466edd4d6d5d3118fc6216", "is_disabled": 0, "is_reserved": 0}, {"bike_id": "cb68db5060a4218085ccaf41b4a82d97", "lat": 38.90960616666667, "type": "electric_scooter", "rental_uris": {"android": "https://dc.lft.to/lastmile_qr_scan", "ios": "https://dc.lft.to/lastmile_qr_scan"}, "lon": -77.03813283333334, "name": "cb68db5060a4218085ccaf41b4a82d97", "is_disabled": 0, "is_reserved": 0}, {"bike_id": "7f2aed95bbec1e01b61e827f5726acb5", "lat": 38.91746766666667, "type": "electric_scooter", "rental_uris": {"android": "https://dc.lft.to/lastmile_qr_scan", "ios": "https://dc.lft.to/lastmile_qr_scan"}, "lon": -77.0367105, "name": "7f2aed95bbec1e01b61e827f5726acb5", "is_disabled": 0, "is_reserved": 0}, {"bike_id": "758d8edfebd1e1513eebad2a2a6d3826", "lat": 38.92033133333334, "type": "electric_scooter", "rental_uris": {"android": "https://dc.lft.to/lastmile_qr_scan", "ios": "https://dc.lft.to/lastmile_qr_scan"}, "lon": -77.01059783333334, "name": "758d8edfebd1e1513eebad2a2a6d3826", "is_disabled": 0, "is_reserved": 0}, {"bike_id": "e699655586f9a57c7f8105f16fe6b8a7", "lat": 38.913048, "type": "electric_scooter", "rental_uris": {"android": "https://dc.lft.to/lastmile_qr_scan", "ios": "https://dc.lft.to/lastmile_qr_scan"}, "lon": -77.00830666666667, "name": "e699655586f9a57c7f8105f16fe6b8a7", "is_disabled": 0, "is_reserved": 0}, {"bike_id": "ca4dda682eb46673911fd70fafbe340f", "lat": 38.90102983333333, "type": "electric_scooter", "rental_uris": {"android": "https://dc.lft.to/lastmile_qr_scan", "ios": "https://dc.lft.to/lastmile_qr_scan"}, "lon": -77.02501033333333, "name": "ca4dda682eb46673911fd70fafbe340f", "is_disabled": 0, "is_reserved": 0}, {"bike_id": "b001dda96474369f0d11158bd1321c40", "lat": 38.871624, "type": "electric_scooter", "rental_uris": {"android": "https://dc.lft.to/lastmile_qr_scan", "ios": "https://dc.lft.to/lastmile_qr_scan"}, "lon": -77.00645933333334, "name": "b001dda96474369f0d11158bd1321c40", "is_disabled": 0, "is_reserved": 0}, {"bike_id": "e0760face6cef183710a027fa16cfbe5", "lat": 38.92904216666667, "type": "electric_scooter", "rental_uris": {"android": "https://dc.lft.to/lastmile_qr_scan", "ios": "https://dc.lft.to/lastmile_qr_scan"}, "lon": -77.03220916666666, "name": "e0760face6cef183710a027fa16cfbe5", "is_disabled": 0, "is_reserved": 0}, {"bike_id": "1fbbaa3ce6deed99f655099953f58238", "lat": 38.89753666666667, "type": "electric_scooter", "rental_uris": {"android": "https://dc.lft.to/lastmile_qr_scan", "ios": "https://dc.lft.to/lastmile_qr_scan"}, "lon": -77.02018233333334, "name": "1fbbaa3ce6deed99f655099953f58238", "is_disabled": 0, "is_reserved": 0}, {"bike_id": "d120ff6634821f1675d0cb72462b7a46", "lat": 38.88031133333333, "type": "electric_scooter", "rental_uris": {"android": "https://dc.lft.to/lastmile_qr_scan", "ios": "https://dc.lft.to/lastmile_qr_scan"}, "lon": -77.00376016666667, "name": "d120ff6634821f1675d0cb72462b7a46", "is_disabled": 0, "is_reserved": 0}, {"bike_id": "64cb049965b523b0759a05a7d5786934", "lat": 38.89980883333333, "type": "electric_bike", "rental_uris": {"android": "https://dc.lft.to/lastmile_qr_scan", "ios": "https://dc.lft.to/lastmile_qr_scan"}, "lon": -76.94253116666667, "name": "64cb049965b523b0759a05a7d5786934", "is_disabled": 0, "is_reserved": 0}, {"bike_id": "73b16b2cc109f1b5277c683d17907510", "lat": 38.93033366666667, "type": "electric_scooter", "rental_uris": {"android": "https://dc.lft.to/lastmile_qr_scan", "ios": "https://dc.lft.to/lastmile_qr_scan"}, "lon": -77.0331035, "name": "73b16b2cc109f1b5277c683d17907510", "is_disabled": 0, "is_reserved": 0}, {"bike_id": "a9319d371ae483d743a421cc4145351e", "lat": 39.001431, "type": "electric_scooter", "rental_uris": {"android": "https://dc.lft.to/lastmile_qr_scan", "ios": "https://dc.lft.to/lastmile_qr_scan"}, "lon": -77.007115, "name": "a9319d371ae483d743a421cc4145351e", "is_disabled": 0, "is_reserved": 0}, {"bike_id": "a4c0f58b8decfe32c160c32579238dde", "lat": 38.9170115, "type": "electric_scooter", "rental_uris": {"android": "https://dc.lft.to/lastmile_qr_scan", "ios": "https://dc.lft.to/lastmile_qr_scan"}, "lon": -77.01182, "name": "a4c0f58b8decfe32c160c32579238dde", "is_disabled": 0, "is_reserved": 0}, {"bike_id": "83f7dd02b978cfac1f7c80314d699daf", "lat": 38.91277516666667, "type": "electric_scooter", "rental_uris": {"android": "https://dc.lft.to/lastmile_qr_scan", "ios": "https://dc.lft.to/lastmile_qr_scan"}, "lon": -76.98569166666667, "name": "83f7dd02b978cfac1f7c80314d699daf", "is_disabled": 0, "is_reserved": 0}, {"bike_id": "85dd988113f7ea99a28839f63385df6a", "lat": 38.904124333333336, "type": "electric_scooter", "rental_uris": {"android": "https://dc.lft.to/lastmile_qr_scan", "ios": "https://dc.lft.to/lastmile_qr_scan"}, "lon": -77.02057133333334, "name": "85dd988113f7ea99a28839f63385df6a", "is_disabled": 0, "is_reserved": 0}, {"bike_id": "6c86207e510d8cc562efb12dcc1a6e7b", "lat": 38.897527833333335, "type": "electric_scooter", "rental_uris": {"android": "https://dc.lft.to/lastmile_qr_scan", "ios": "https://dc.lft.to/lastmile_qr_scan"}, "lon": -77.03331683333333, "name": "6c86207e510d8cc562efb12dcc1a6e7b", "is_disabled": 0, "is_reserved": 0}, {"bike_id": "d68fc389ed4ecff02bad83c7024e4824", "lat": 38.900608166666665, "type": "electric_scooter", "rental_uris": {"android": "https://dc.lft.to/lastmile_qr_scan", "ios": "https://dc.lft.to/lastmile_qr_scan"}, "lon": -77.02621183333333, "name": "d68fc389ed4ecff02bad83c7024e4824", "is_disabled": 0, "is_reserved": 0}, {"bike_id": "b7ca31ba45d703e0fb4ebc690208bf8e", "lat": 39.022435333333334, "type": "electric_bike", "rental_uris": {"android": "https://dc.lft.to/lastmile_qr_scan", "ios": "https://dc.lft.to/lastmile_qr_scan"}, "lon": -76.99966, "name": "b7ca31ba45d703e0fb4ebc690208bf8e", "is_disabled": 0, "is_reserved": 0}, {"bike_id": "8e1abcb2a47d5b59df366d8ff4972835", "lat": 38.90652333333333, "type": "electric_scooter", "rental_uris": {"android": "https://dc.lft.to/lastmile_qr_scan", "ios": "https://dc.lft.to/lastmile_qr_scan"}, "lon": -77.04889416666667, "name": "8e1abcb2a47d5b59df366d8ff4972835", "is_disabled": 0, "is_reserved": 0}, {"bike_id": "f1a665cf6a1d7e8d081a3701a411fd40", "lat": 38.877167166666666, "type": "electric_scooter", "rental_uris": {"android": "https://dc.lft.to/lastmile_qr_scan", "ios": "https://dc.lft.to/lastmile_qr_scan"}, "lon": -77.01142366666667, "name": "f1a665cf6a1d7e8d081a3701a411fd40", "is_disabled": 0, "is_reserved": 0}, {"bike_id": "cba78181a75c441a541f7983ad12e2be", "lat": 38.90537666666667, "type": "electric_scooter", "rental_uris": {"android": "https://dc.lft.to/lastmile_qr_scan", "ios": "https://dc.lft.to/lastmile_qr_scan"}, "lon": -77.02595666666667, "name": "cba78181a75c441a541f7983ad12e2be", "is_disabled": 0, "is_reserved": 0}, {"bike_id": "91fa644eaef92e21cf59ac2299898665", "lat": 38.868742833333336, "type": "electric_scooter", "rental_uris": {"android": "https://dc.lft.to/lastmile_qr_scan", "ios": "https://dc.lft.to/lastmile_qr_scan"}, "lon": -76.99013133333334, "name": "91fa644eaef92e21cf59ac2299898665", "is_disabled": 0, "is_reserved": 0}, {"bike_id": "948f43d7b9b79c38621d18b5b6f694f2", "lat": 38.90353133333333, "type": "electric_bike", "rental_uris": {"android": "https://dc.lft.to/lastmile_qr_scan", "ios": "https://dc.lft.to/lastmile_qr_scan"}, "lon": -76.95015083333334, "name": "948f43d7b9b79c38621d18b5b6f694f2", "is_disabled": 0, "is_reserved": 0}, {"bike_id": "12f8f9096994c3527ec59ee4a393e567", "lat": 38.9307225, "type": "electric_scooter", "rental_uris": {"android": "https://dc.lft.to/lastmile_qr_scan", "ios": "https://dc.lft.to/lastmile_qr_scan"}, "lon": -77.03254033333333, "name": "12f8f9096994c3527ec59ee4a393e567", "is_disabled": 0, "is_reserved": 0}, {"bike_id": "9256079c8c86631b280d0d0c718eea04", "lat": 38.91601216666667, "type": "electric_scooter", "rental_uris": {"android": "https://dc.lft.to/lastmile_qr_scan", "ios": "https://dc.lft.to/lastmile_qr_scan"}, "lon": -77.03034816666667, "name": "9256079c8c86631b280d0d0c718eea04", "is_disabled": 0, "is_reserved": 0}, {"bike_id": "dab80dc319f0370a5879f5b221ca79aa", "lat": 38.921174, "type": "electric_scooter", "rental_uris": {"android": "https://dc.lft.to/lastmile_qr_scan", "ios": "https://dc.lft.to/lastmile_qr_scan"}, "lon": -77.041129, "name": "dab80dc319f0370a5879f5b221ca79aa", "is_disabled": 0, "is_reserved": 0}, {"bike_id": "2a588cf8ccfe7a489342e0b4c449c4c7", "lat": 38.903141166666664, "type": "electric_scooter", "rental_uris": {"android": "https://dc.lft.to/lastmile_qr_scan", "ios": "https://dc.lft.to/lastmile_qr_scan"}, "lon": -77.03657583333333, "name": "2a588cf8ccfe7a489342e0b4c449c4c7", "is_disabled": 0, "is_reserved": 0}, {"bike_id": "1bf082e00d438cf9308b11de26657819", "lat": 38.898166, "type": "electric_scooter", "rental_uris": {"android": "https://dc.lft.to/lastmile_qr_scan", "ios": "https://dc.lft.to/lastmile_qr_scan"}, "lon": -77.054412, "name": "1bf082e00d438cf9308b11de26657819", "is_disabled": 0, "is_reserved": 0}, {"bike_id": "2ed10c78da1a38fdd33a10ab1d07c530", "lat": 38.9042345, "type": "electric_scooter", "rental_uris": {"android": "https://dc.lft.to/lastmile_qr_scan", "ios": "https://dc.lft.to/lastmile_qr_scan"}, "lon": -77.02889466666667, "name": "2ed10c78da1a38fdd33a10ab1d07c530", "is_disabled": 0, "is_reserved": 0}, {"bike_id": "6105d697f6bd6324916d890429091916", "lat": 38.90442083333333, "type": "electric_scooter", "rental_uris": {"android": "https://dc.lft.to/lastmile_qr_scan", "ios": "https://dc.lft.to/lastmile_qr_scan"}, "lon": -76.97307983333333, "name": "6105d697f6bd6324916d890429091916", "is_disabled": 0, "is_reserved": 0}, {"bike_id": "5675da26491154d40fa99a0df36bf170", "lat": 38.95259166666666, "type": "electric_scooter", "rental_uris": {"android": "https://dc.lft.to/lastmile_qr_scan", "ios": "https://dc.lft.to/lastmile_qr_scan"}, "lon": -77.0207525, "name": "5675da26491154d40fa99a0df36bf170", "is_disabled": 0, "is_reserved": 0}, {"bike_id": "dc87358b0c5d19182b261a228c687885", "lat": 38.88971466666667, "type": "electric_scooter", "rental_uris": {"android": "https://dc.lft.to/lastmile_qr_scan", "ios": "https://dc.lft.to/lastmile_qr_scan"}, "lon": -76.9881825, "name": "dc87358b0c5d19182b261a228c687885", "is_disabled": 0, "is_reserved": 0}, {"bike_id": "40888d931512b6f5101b53d60c671fb3", "lat": 38.8436205, "type": "electric_bike", "rental_uris": {"android": "https://dc.lft.to/lastmile_qr_scan", "ios": "https://dc.lft.to/lastmile_qr_scan"}, "lon": -77.080753, "name": "40888d931512b6f5101b53d60c671fb3", "is_disabled": 0, "is_reserved": 0}, {"bike_id": "c9c59f62b05ae5a3f8dac342c8fec376", "lat": 38.89759333333333, "type": "electric_bike", "rental_uris": {"android": "https://dc.lft.to/lastmile_qr_scan", "ios": "https://dc.lft.to/lastmile_qr_scan"}, "lon": -76.88953783333334, "name": "c9c59f62b05ae5a3f8dac342c8fec376", "is_disabled": 0, "is_reserved": 0}, {"bike_id": "3187dcda24bfe85bab5107b5f9b1ad89", "lat": 38.924242, "type": "electric_scooter", "rental_uris": {"android": "https://dc.lft.to/lastmile_qr_scan", "ios": "https://dc.lft.to/lastmile_qr_scan"}, "lon": -77.03910166666667, "name": "3187dcda24bfe85bab5107b5f9b1ad89", "is_disabled": 0, "is_reserved": 0}, {"bike_id": "4d299d826342fb9af616279ef7a14ded", "lat": 38.901443, "type": "electric_scooter", "rental_uris": {"android": "https://dc.lft.to/lastmile_qr_scan", "ios": "https://dc.lft.to/lastmile_qr_scan"}, "lon": -76.95148366666666, "name": "4d299d826342fb9af616279ef7a14ded", "is_disabled": 0, "is_reserved": 0}, {"bike_id": "75dec89be204a6b42b37c7060d5004f0", "lat": 38.914238833333336, "type": "electric_scooter", "rental_uris": {"android": "https://dc.lft.to/lastmile_qr_scan", "ios": "https://dc.lft.to/lastmile_qr_scan"}, "lon": -77.03182516666666, "name": "75dec89be204a6b42b37c7060d5004f0", "is_disabled": 0, "is_reserved": 0}, {"bike_id": "d147cd47c5c57f22d3f43ad3b9f6eacb", "lat": 38.909181833333335, "type": "electric_scooter", "rental_uris": {"android": "https://dc.lft.to/lastmile_qr_scan", "ios": "https://dc.lft.to/lastmile_qr_scan"}, "lon": -77.08743516666667, "name": "d147cd47c5c57f22d3f43ad3b9f6eacb", "is_disabled": 0, "is_reserved": 0}, {"bike_id": "3eab4fbaeb4b8e562a8d3b2f9c87667a", "lat": 38.935811, "type": "electric_scooter", "rental_uris": {"android": "https://dc.lft.to/lastmile_qr_scan", "ios": "https://dc.lft.to/lastmile_qr_scan"}, "lon": -77.0731635, "name": "3eab4fbaeb4b8e562a8d3b2f9c87667a", "is_disabled": 0, "is_reserved": 0}, {"bike_id": "576939f4e8e49c43ad8e8a9a1d898f43", "lat": 38.873218666666666, "type": "electric_bike", "rental_uris": {"android": "https://dc.lft.to/lastmile_qr_scan", "ios": "https://dc.lft.to/lastmile_qr_scan"}, "lon": -77.1390375, "name": "576939f4e8e49c43ad8e8a9a1d898f43", "is_disabled": 0, "is_reserved": 0}, {"bike_id": "3f2455ffd25062170928aad4c41edbd9", "lat": 38.92574883333333, "type": "electric_scooter", "rental_uris": {"android": "https://dc.lft.to/lastmile_qr_scan", "ios": "https://dc.lft.to/lastmile_qr_scan"}, "lon": -77.0535, "name": "3f2455ffd25062170928aad4c41edbd9", "is_disabled": 0, "is_reserved": 0}, {"bike_id": "9693c43afc1d61598be7624769f3f1f0", "lat": 38.9924515, "type": "electric_bike", "rental_uris": {"android": "https://dc.lft.to/lastmile_qr_scan", "ios": "https://dc.lft.to/lastmile_qr_scan"}, "lon": -77.02659933333334, "name": "9693c43afc1d61598be7624769f3f1f0", "is_disabled": 0, "is_reserved": 0}, {"bike_id": "ff4c0a8dd49e9ab93a47e13f6712fbb6", "lat": 38.86040966666667, "type": "electric_bike", "rental_uris": {"android": "https://dc.lft.to/lastmile_qr_scan", "ios": "https://dc.lft.to/lastmile_qr_scan"}, "lon": -76.98773666666666, "name": "ff4c0a8dd49e9ab93a47e13f6712fbb6", "is_disabled": 0, "is_reserved": 0}, {"bike_id": "25401348d4b1d5def372bcac8a729c8a", "lat": 38.9355795, "type": "electric_scooter", "rental_uris": {"android": "https://dc.lft.to/lastmile_qr_scan", "ios": "https://dc.lft.to/lastmile_qr_scan"}, "lon": -77.07544566666667, "name": "25401348d4b1d5def372bcac8a729c8a", "is_disabled": 0, "is_reserved": 0}, {"bike_id": "f39cd68cfdfed6c9b4c890d3082a82f6", "lat": 38.90525233333334, "type": "electric_scooter", "rental_uris": {"android": "https://dc.lft.to/lastmile_qr_scan", "ios": "https://dc.lft.to/lastmile_qr_scan"}, "lon": -77.03964766666667, "name": "f39cd68cfdfed6c9b4c890d3082a82f6", "is_disabled": 0, "is_reserved": 0}, {"bike_id": "5d9a0a3dfd486bf752a3748010d2d8b1", "lat": 38.984939, "type": "electric_bike", "rental_uris": {"android": "https://dc.lft.to/lastmile_qr_scan", "ios": "https://dc.lft.to/lastmile_qr_scan"}, "lon": -77.033482, "name": "5d9a0a3dfd486bf752a3748010d2d8b1", "is_disabled": 0, "is_reserved": 0}, {"bike_id": "5ec16f17e35710781bfc347e7f0339bb", "lat": 38.901413166666664, "type": "electric_scooter", "rental_uris": {"android": "https://dc.lft.to/lastmile_qr_scan", "ios": "https://dc.lft.to/lastmile_qr_scan"}, "lon": -76.95163366666667, "name": "5ec16f17e35710781bfc347e7f0339bb", "is_disabled": 0, "is_reserved": 0}, {"bike_id": "2a4cc27cb7ffba6db8ff171ed54e0c96", "lat": 38.891426333333335, "type": "electric_scooter", "rental_uris": {"android": "https://dc.lft.to/lastmile_qr_scan", "ios": "https://dc.lft.to/lastmile_qr_scan"}, "lon": -76.99264083333334, "name": "2a4cc27cb7ffba6db8ff171ed54e0c96", "is_disabled": 0, "is_reserved": 0}, {"bike_id": "d09ae47510f8bc17dafe634f75266b3f", "lat": 38.9088785, "type": "electric_scooter", "rental_uris": {"android": "https://dc.lft.to/lastmile_qr_scan", "ios": "https://dc.lft.to/lastmile_qr_scan"}, "lon": -77.036586, "name": "d09ae47510f8bc17dafe634f75266b3f", "is_disabled": 0, "is_reserved": 0}, {"bike_id": "c3328aeed1e658e35ee8229468622912", "lat": 38.902755, "type": "electric_scooter", "rental_uris": {"android": "https://dc.lft.to/lastmile_qr_scan", "ios": "https://dc.lft.to/lastmile_qr_scan"}, "lon": -77.03670883333334, "name": "c3328aeed1e658e35ee8229468622912", "is_disabled": 0, "is_reserved": 0}, {"bike_id": "cd6b8c2e95da5baad00ec73a2b555b15", "lat": 38.99025683333333, "type": "electric_scooter", "rental_uris": {"android": "https://dc.lft.to/lastmile_qr_scan", "ios": "https://dc.lft.to/lastmile_qr_scan"}, "lon": -77.029536, "name": "cd6b8c2e95da5baad00ec73a2b555b15", "is_disabled": 0, "is_reserved": 0}, {"bike_id": "1fa3b23bc2d77d8b88a21c4823cf055b", "lat": 38.88436933333333, "type": "electric_bike", "rental_uris": {"android": "https://dc.lft.to/lastmile_qr_scan", "ios": "https://dc.lft.to/lastmile_qr_scan"}, "lon": -77.01528483333334, "name": "1fa3b23bc2d77d8b88a21c4823cf055b", "is_disabled": 0, "is_reserved": 0}, {"bike_id": "3ee7576ffaf0af9720ed9da35490889c", "lat": 38.90419883333333, "type": "electric_scooter", "rental_uris": {"android": "https://dc.lft.to/lastmile_qr_scan", "ios": "https://dc.lft.to/lastmile_qr_scan"}, "lon": -77.02156083333334, "name": "3ee7576ffaf0af9720ed9da35490889c", "is_disabled": 0, "is_reserved": 0}, {"bike_id": "065b3ace254c4565c84fdeaf78d0c7ed", "lat": 38.9019055, "type": "electric_scooter", "rental_uris": {"android": "https://dc.lft.to/lastmile_qr_scan", "ios": "https://dc.lft.to/lastmile_qr_scan"}, "lon": -77.01755066666666, "name": "065b3ace254c4565c84fdeaf78d0c7ed", "is_disabled": 0, "is_reserved": 0}, {"bike_id": "0c01ded2d88e5fc0e5b8323197997e09", "lat": 38.878028, "type": "electric_scooter", "rental_uris": {"android": "https://dc.lft.to/lastmile_qr_scan", "ios": "https://dc.lft.to/lastmile_qr_scan"}, "lon": -76.999452, "name": "0c01ded2d88e5fc0e5b8323197997e09", "is_disabled": 0, "is_reserved": 0}, {"bike_id": "8ac72abddbb72571ba9b99797066d7d3", "lat": 38.89492416666667, "type": "electric_scooter", "rental_uris": {"android": "https://dc.lft.to/lastmile_qr_scan", "ios": "https://dc.lft.to/lastmile_qr_scan"}, "lon": -76.97395116666667, "name": "8ac72abddbb72571ba9b99797066d7d3", "is_disabled": 0, "is_reserved": 0}, {"bike_id": "4935f7245894f40be881b4abbf3b701b", "lat": 38.90642916666667, "type": "electric_scooter", "rental_uris": {"android": "https://dc.lft.to/lastmile_qr_scan", "ios": "https://dc.lft.to/lastmile_qr_scan"}, "lon": -77.0414635, "name": "4935f7245894f40be881b4abbf3b701b", "is_disabled": 0, "is_reserved": 0}, {"bike_id": "7683b962095d5a275841f93fa804bf78", "lat": 38.939840833333335, "type": "electric_scooter", "rental_uris": {"android": "https://dc.lft.to/lastmile_qr_scan", "ios": "https://dc.lft.to/lastmile_qr_scan"}, "lon": -77.027975, "name": "7683b962095d5a275841f93fa804bf78", "is_disabled": 0, "is_reserved": 0}, {"bike_id": "1cc54b1c0d112931ba1374d7482f8097", "lat": 38.908192, "type": "electric_scooter", "rental_uris": {"android": "https://dc.lft.to/lastmile_qr_scan", "ios": "https://dc.lft.to/lastmile_qr_scan"}, "lon": -76.99709416666667, "name": "1cc54b1c0d112931ba1374d7482f8097", "is_disabled": 0, "is_reserved": 0}, {"bike_id": "0cbf40c32b91334b0d53fb1235972593", "lat": 38.908606666666664, "type": "electric_scooter", "rental_uris": {"android": "https://dc.lft.to/lastmile_qr_scan", "ios": "https://dc.lft.to/lastmile_qr_scan"}, "lon": -76.997975, "name": "0cbf40c32b91334b0d53fb1235972593", "is_disabled": 0, "is_reserved": 0}, {"bike_id": "e0fcb58f24a06fc40649e040741eed8f", "lat": 38.995656333333336, "type": "electric_scooter", "rental_uris": {"android": "https://dc.lft.to/lastmile_qr_scan", "ios": "https://dc.lft.to/lastmile_qr_scan"}, "lon": -77.02415466666666, "name": "e0fcb58f24a06fc40649e040741eed8f", "is_disabled": 0, "is_reserved": 0}, {"bike_id": "d77d674a56f61f08921f0ac3782bdccb", "lat": 38.8918665, "type": "electric_bike", "rental_uris": {"android": "https://dc.lft.to/lastmile_qr_scan", "ios": "https://dc.lft.to/lastmile_qr_scan"}, "lon": -76.9290335, "name": "d77d674a56f61f08921f0ac3782bdccb", "is_disabled": 0, "is_reserved": 0}, {"bike_id": "fde2cce4a1cf02d345b05a631bf9b6c6", "lat": 38.91185566666667, "type": "electric_scooter", "rental_uris": {"android": "https://dc.lft.to/lastmile_qr_scan", "ios": "https://dc.lft.to/lastmile_qr_scan"}, "lon": -77.01822483333333, "name": "fde2cce4a1cf02d345b05a631bf9b6c6", "is_disabled": 0, "is_reserved": 0}, {"bike_id": "dfe92f595b834cd81c80b8a02a16f003", "lat": 38.90154316666667, "type": "electric_scooter", "rental_uris": {"android": "https://dc.lft.to/lastmile_qr_scan", "ios": "https://dc.lft.to/lastmile_qr_scan"}, "lon": -77.02958616666666, "name": "dfe92f595b834cd81c80b8a02a16f003", "is_disabled": 0, "is_reserved": 0}, {"bike_id": "60ff76b4e9823344ea5f012ce2ab5a23", "lat": 39.0308775, "type": "electric_bike", "rental_uris": {"android": "https://dc.lft.to/lastmile_qr_scan", "ios": "https://dc.lft.to/lastmile_qr_scan"}, "lon": -77.10215883333333, "name": "60ff76b4e9823344ea5f012ce2ab5a23", "is_disabled": 0, "is_reserved": 0}, {"bike_id": "cb5dfcc0a0c3c9cc871dc557d22cf353", "lat": 38.947906333333336, "type": "electric_scooter", "rental_uris": {"android": "https://dc.lft.to/lastmile_qr_scan", "ios": "https://dc.lft.to/lastmile_qr_scan"}, "lon": -77.01559883333333, "name": "cb5dfcc0a0c3c9cc871dc557d22cf353", "is_disabled": 0, "is_reserved": 0}, {"bike_id": "f677d10d11fab2929599ce2a2820a26c", "lat": 38.858411333333336, "type": "electric_scooter", "rental_uris": {"android": "https://dc.lft.to/lastmile_qr_scan", "ios": "https://dc.lft.to/lastmile_qr_scan"}, "lon": -76.99021033333334, "name": "f677d10d11fab2929599ce2a2820a26c", "is_disabled": 0, "is_reserved": 0}, {"bike_id": "775f7e62791b2d4ebcd27bf528925c05", "lat": 38.99613683333333, "type": "electric_scooter", "rental_uris": {"android": "https://dc.lft.to/lastmile_qr_scan", "ios": "https://dc.lft.to/lastmile_qr_scan"}, "lon": -77.04287766666667, "name": "775f7e62791b2d4ebcd27bf528925c05", "is_disabled": 0, "is_reserved": 0}, {"bike_id": "0726245560325d0ca56cd413861e14ba", "lat": 38.89877, "type": "electric_bike", "rental_uris": {"android": "https://dc.lft.to/lastmile_qr_scan", "ios": "https://dc.lft.to/lastmile_qr_scan"}, "lon": -76.93183616666667, "name": "0726245560325d0ca56cd413861e14ba", "is_disabled": 0, "is_reserved": 0}, {"bike_id": "b7846b1a464aaafec301eeac75ec3c57", "lat": 38.873214, "type": "electric_scooter", "rental_uris": {"android": "https://dc.lft.to/lastmile_qr_scan", "ios": "https://dc.lft.to/lastmile_qr_scan"}, "lon": -77.00163966666666, "name": "b7846b1a464aaafec301eeac75ec3c57", "is_disabled": 0, "is_reserved": 0}, {"bike_id": "54f613e6526c5f8bbd7fb65dae40bbdd", "lat": 38.90976416666667, "type": "electric_scooter", "rental_uris": {"android": "https://dc.lft.to/lastmile_qr_scan", "ios": "https://dc.lft.to/lastmile_qr_scan"}, "lon": -77.03272183333333, "name": "54f613e6526c5f8bbd7fb65dae40bbdd", "is_disabled": 0, "is_reserved": 0}, {"bike_id": "92d8e226d4b80c5fe892d0f4438a7b3d", "lat": 38.89517333333333, "type": "electric_scooter", "rental_uris": {"android": "https://dc.lft.to/lastmile_qr_scan", "ios": "https://dc.lft.to/lastmile_qr_scan"}, "lon": -77.02573333333333, "name": "92d8e226d4b80c5fe892d0f4438a7b3d", "is_disabled": 0, "is_reserved": 0}, {"bike_id": "be0d4c83cc29450dfd0e531cf3411f78", "lat": 38.9532505, "type": "electric_bike", "rental_uris": {"android": "https://dc.lft.to/lastmile_qr_scan", "ios": "https://dc.lft.to/lastmile_qr_scan"}, "lon": -76.98101433333333, "name": "be0d4c83cc29450dfd0e531cf3411f78", "is_disabled": 0, "is_reserved": 0}, {"bike_id": "a90066da8e3e91b39f60e1818f105f9a", "lat": 38.92548383333333, "type": "electric_scooter", "rental_uris": {"android": "https://dc.lft.to/lastmile_qr_scan", "ios": "https://dc.lft.to/lastmile_qr_scan"}, "lon": -77.02374816666666, "name": "a90066da8e3e91b39f60e1818f105f9a", "is_disabled": 0, "is_reserved": 0}, {"bike_id": "a641172a7b757fe5f20cfc931eaec1b3", "lat": 38.909749, "type": "electric_scooter", "rental_uris": {"android": "https://dc.lft.to/lastmile_qr_scan", "ios": "https://dc.lft.to/lastmile_qr_scan"}, "lon": -77.03746316666667, "name": "a641172a7b757fe5f20cfc931eaec1b3", "is_disabled": 0, "is_reserved": 0}, {"bike_id": "726bbbd5d53efcad2aaec8c44dc92c94", "lat": 38.900385, "type": "electric_scooter", "rental_uris": {"android": "https://dc.lft.to/lastmile_qr_scan", "ios": "https://dc.lft.to/lastmile_qr_scan"}, "lon": -77.00745033333334, "name": "726bbbd5d53efcad2aaec8c44dc92c94", "is_disabled": 0, "is_reserved": 0}, {"bike_id": "732b51393b72127fed5ce2d6d1ef8c2a", "lat": 38.88122283333333, "type": "electric_scooter", "rental_uris": {"android": "https://dc.lft.to/lastmile_qr_scan", "ios": "https://dc.lft.to/lastmile_qr_scan"}, "lon": -76.99514966666666, "name": "732b51393b72127fed5ce2d6d1ef8c2a", "is_disabled": 0, "is_reserved": 0}, {"bike_id": "ccc1d9ccb5770f2d39f057c5d46f27bf", "lat": 38.972754333333334, "type": "electric_bike", "rental_uris": {"android": "https://dc.lft.to/lastmile_qr_scan", "ios": "https://dc.lft.to/lastmile_qr_scan"}, "lon": -77.0554955, "name": "ccc1d9ccb5770f2d39f057c5d46f27bf", "is_disabled": 0, "is_reserved": 0}, {"bike_id": "f78d5847a94e37e27158d9a0d430634c", "lat": 38.93012083333333, "type": "electric_bike", "rental_uris": {"android": "https://dc.lft.to/lastmile_qr_scan", "ios": "https://dc.lft.to/lastmile_qr_scan"}, "lon": -77.08376266666667, "name": "f78d5847a94e37e27158d9a0d430634c", "is_disabled": 0, "is_reserved": 0}, {"bike_id": "5568f2464ebd059bad45583620494c0f", "lat": 38.90338083333333, "type": "electric_bike", "rental_uris": {"android": "https://dc.lft.to/lastmile_qr_scan", "ios": "https://dc.lft.to/lastmile_qr_scan"}, "lon": -76.9752895, "name": "5568f2464ebd059bad45583620494c0f", "is_disabled": 0, "is_reserved": 0}, {"bike_id": "beb4e27711b6054ad28515294de3c0d6", "lat": 39.090073, "type": "electric_bike", "rental_uris": {"android": "https://dc.lft.to/lastmile_qr_scan", "ios": "https://dc.lft.to/lastmile_qr_scan"}, "lon": -76.9383975, "name": "beb4e27711b6054ad28515294de3c0d6", "is_disabled": 0, "is_reserved": 0}, {"bike_id": "fdf68fc5ddeb6934edd3e8442d931f68", "lat": 38.915782666666665, "type": "electric_scooter", "rental_uris": {"android": "https://dc.lft.to/lastmile_qr_scan", "ios": "https://dc.lft.to/lastmile_qr_scan"}, "lon": -77.067685, "name": "fdf68fc5ddeb6934edd3e8442d931f68", "is_disabled": 0, "is_reserved": 0}, {"bike_id": "e93d1d5df49d17a26a60f9ba5af1d8ed", "lat": 38.909037, "type": "electric_bike", "rental_uris": {"android": "https://dc.lft.to/lastmile_qr_scan", "ios": "https://dc.lft.to/lastmile_qr_scan"}, "lon": -77.04375533333334, "name": "e93d1d5df49d17a26a60f9ba5af1d8ed", "is_disabled": 0, "is_reserved": 0}, {"bike_id": "903c570311864b8e6e69d5097ebd3b46", "lat": 38.917522166666664, "type": "electric_scooter", "rental_uris": {"android": "https://dc.lft.to/lastmile_qr_scan", "ios": "https://dc.lft.to/lastmile_qr_scan"}, "lon": -77.00748866666666, "name": "903c570311864b8e6e69d5097ebd3b46", "is_disabled": 0, "is_reserved": 0}, {"bike_id": "a201991859186326e029ee02bd9a4be8", "lat": 38.92093633333333, "type": "electric_bike", "rental_uris": {"android": "https://dc.lft.to/lastmile_qr_scan", "ios": "https://dc.lft.to/lastmile_qr_scan"}, "lon": -77.02694333333334, "name": "a201991859186326e029ee02bd9a4be8", "is_disabled": 0, "is_reserved": 0}, {"bike_id": "3c72c86ad3e093d488201cc5bc52d8fc", "lat": 38.908235833333336, "type": "electric_scooter", "rental_uris": {"android": "https://dc.lft.to/lastmile_qr_scan", "ios": "https://dc.lft.to/lastmile_qr_scan"}, "lon": -77.01798616666666, "name": "3c72c86ad3e093d488201cc5bc52d8fc", "is_disabled": 0, "is_reserved": 0}, {"bike_id": "b48b02f5e5709d9ab16f61db2b10b9f7", "lat": 39.015183666666665, "type": "electric_scooter", "rental_uris": {"android": "https://dc.lft.to/lastmile_qr_scan", "ios": "https://dc.lft.to/lastmile_qr_scan"}, "lon": -77.03768116666667, "name": "b48b02f5e5709d9ab16f61db2b10b9f7", "is_disabled": 0, "is_reserved": 0}, {"bike_id": "54c877fd8ae17a7dc23a48aeda821800", "lat": 38.9225275, "type": "electric_scooter", "rental_uris": {"android": "https://dc.lft.to/lastmile_qr_scan", "ios": "https://dc.lft.to/lastmile_qr_scan"}, "lon": -77.0281165, "name": "54c877fd8ae17a7dc23a48aeda821800", "is_disabled": 0, "is_reserved": 0}, {"bike_id": "dcd00b05f0b33b4a74baf567b83154b3", "lat": 38.9004315, "type": "electric_scooter", "rental_uris": {"android": "https://dc.lft.to/lastmile_qr_scan", "ios": "https://dc.lft.to/lastmile_qr_scan"}, "lon": -76.9960215, "name": "dcd00b05f0b33b4a74baf567b83154b3", "is_disabled": 0, "is_reserved": 0}, {"bike_id": "a52a6da634aa17b42640019655c0f57e", "lat": 38.8988595, "type": "electric_scooter", "rental_uris": {"android": "https://dc.lft.to/lastmile_qr_scan", "ios": "https://dc.lft.to/lastmile_qr_scan"}, "lon": -76.99284716666666, "name": "a52a6da634aa17b42640019655c0f57e", "is_disabled": 0, "is_reserved": 0}, {"bike_id": "a960e19e9263e2047ad07b00608dfbb7", "lat": 38.9325035, "type": "electric_scooter", "rental_uris": {"android": "https://dc.lft.to/lastmile_qr_scan", "ios": "https://dc.lft.to/lastmile_qr_scan"}, "lon": -77.03896716666667, "name": "a960e19e9263e2047ad07b00608dfbb7", "is_disabled": 0, "is_reserved": 0}, {"bike_id": "94731c8db80dbc36528ceb27a709ce70", "lat": 38.90258716666666, "type": "electric_scooter", "rental_uris": {"android": "https://dc.lft.to/lastmile_qr_scan", "ios": "https://dc.lft.to/lastmile_qr_scan"}, "lon": -76.99667966666667, "name": "94731c8db80dbc36528ceb27a709ce70", "is_disabled": 0, "is_reserved": 0}, {"bike_id": "c087509ff5f788a479ac0cd12fd426cc", "lat": 38.8949885, "type": "electric_scooter", "rental_uris": {"android": "https://dc.lft.to/lastmile_qr_scan", "ios": "https://dc.lft.to/lastmile_qr_scan"}, "lon": -77.002706, "name": "c087509ff5f788a479ac0cd12fd426cc", "is_disabled": 0, "is_reserved": 0}, {"bike_id": "b9e6722b45d4f4cbeadb6b4bed793a04", "lat": 38.998817833333334, "type": "electric_scooter", "rental_uris": {"android": "https://dc.lft.to/lastmile_qr_scan", "ios": "https://dc.lft.to/lastmile_qr_scan"}, "lon": -77.0412465, "name": "b9e6722b45d4f4cbeadb6b4bed793a04", "is_disabled": 0, "is_reserved": 0}, {"bike_id": "ce67441f2131294f5afc83f69a7df9b1", "lat": 39.05730466666667, "type": "electric_bike", "rental_uris": {"android": "https://dc.lft.to/lastmile_qr_scan", "ios": "https://dc.lft.to/lastmile_qr_scan"}, "lon": -77.11668866666666, "name": "ce67441f2131294f5afc83f69a7df9b1", "is_disabled": 0, "is_reserved": 0}, {"bike_id": "ce4e097ab7e58e8dbd3fe004951288f0", "lat": 38.8993975, "type": "electric_scooter", "rental_uris": {"android": "https://dc.lft.to/lastmile_qr_scan", "ios": "https://dc.lft.to/lastmile_qr_scan"}, "lon": -77.053949, "name": "ce4e097ab7e58e8dbd3fe004951288f0", "is_disabled": 0, "is_reserved": 0}, {"bike_id": "ff5938b628275b23eb4a6a1d132b6eab", "lat": 38.913685666666666, "type": "electric_scooter", "rental_uris": {"android": "https://dc.lft.to/lastmile_qr_scan", "ios": "https://dc.lft.to/lastmile_qr_scan"}, "lon": -77.07020716666666, "name": "ff5938b628275b23eb4a6a1d132b6eab", "is_disabled": 0, "is_reserved": 0}, {"bike_id": "032f027a732d369c7eaaa9618b5c6b66", "lat": 38.89902283333333, "type": "electric_scooter", "rental_uris": {"android": "https://dc.lft.to/lastmile_qr_scan", "ios": "https://dc.lft.to/lastmile_qr_scan"}, "lon": -76.99258283333333, "name": "032f027a732d369c7eaaa9618b5c6b66", "is_disabled": 0, "is_reserved": 0}, {"bike_id": "086fedb023656b0ba4215f6f9147b1e2", "lat": 38.901893, "type": "electric_bike", "rental_uris": {"android": "https://dc.lft.to/lastmile_qr_scan", "ios": "https://dc.lft.to/lastmile_qr_scan"}, "lon": -76.92577916666667, "name": "086fedb023656b0ba4215f6f9147b1e2", "is_disabled": 0, "is_reserved": 0}, {"bike_id": "d5fea05f81bcfa24948d537330a8886c", "lat": 38.9028985, "type": "electric_scooter", "rental_uris": {"android": "https://dc.lft.to/lastmile_qr_scan", "ios": "https://dc.lft.to/lastmile_qr_scan"}, "lon": -77.01623666666667, "name": "d5fea05f81bcfa24948d537330a8886c", "is_disabled": 0, "is_reserved": 0}, {"bike_id": "5a02b9b58764d3f9c73400a358026ed8", "lat": 38.956343, "type": "electric_scooter", "rental_uris": {"android": "https://dc.lft.to/lastmile_qr_scan", "ios": "https://dc.lft.to/lastmile_qr_scan"}, "lon": -77.02247, "name": "5a02b9b58764d3f9c73400a358026ed8", "is_disabled": 0, "is_reserved": 0}, {"bike_id": "600dfe72b5aed78ca276e18d8f44d185", "lat": 38.87411216666667, "type": "electric_bike", "rental_uris": {"android": "https://dc.lft.to/lastmile_qr_scan", "ios": "https://dc.lft.to/lastmile_qr_scan"}, "lon": -76.97037433333334, "name": "600dfe72b5aed78ca276e18d8f44d185", "is_disabled": 0, "is_reserved": 0}, {"bike_id": "6d0f72aef78251e5d15daccdf733a7ac", "lat": 38.8731915, "type": "electric_scooter", "rental_uris": {"android": "https://dc.lft.to/lastmile_qr_scan", "ios": "https://dc.lft.to/lastmile_qr_scan"}, "lon": -77.006021, "name": "6d0f72aef78251e5d15daccdf733a7ac", "is_disabled": 0, "is_reserved": 0}, {"bike_id": "6b9b9a123924acf6157179e74d77d315", "lat": 38.8969325, "type": "electric_scooter", "rental_uris": {"android": "https://dc.lft.to/lastmile_qr_scan", "ios": "https://dc.lft.to/lastmile_qr_scan"}, "lon": -77.02579683333333, "name": "6b9b9a123924acf6157179e74d77d315", "is_disabled": 0, "is_reserved": 0}, {"bike_id": "efd37017e6b223e13fc3fb0594908fcd", "lat": 38.929597666666666, "type": "electric_scooter", "rental_uris": {"android": "https://dc.lft.to/lastmile_qr_scan", "ios": "https://dc.lft.to/lastmile_qr_scan"}, "lon": -76.9915075, "name": "efd37017e6b223e13fc3fb0594908fcd", "is_disabled": 0, "is_reserved": 0}, {"bike_id": "e5aef128eedc53ac652b6e1b8f5f6a5e", "lat": 38.8973155, "type": "electric_bike", "rental_uris": {"android": "https://dc.lft.to/lastmile_qr_scan", "ios": "https://dc.lft.to/lastmile_qr_scan"}, "lon": -77.02696083333333, "name": "e5aef128eedc53ac652b6e1b8f5f6a5e", "is_disabled": 0, "is_reserved": 0}, {"bike_id": "166debc879acfd80bb58e9afc7d3aece", "lat": 38.90754366666667, "type": "electric_scooter", "rental_uris": {"android": "https://dc.lft.to/lastmile_qr_scan", "ios": "https://dc.lft.to/lastmile_qr_scan"}, "lon": -77.048661, "name": "166debc879acfd80bb58e9afc7d3aece", "is_disabled": 0, "is_reserved": 0}, {"bike_id": "f9d61ef46c1411bb9ecd1b9b56ab9e8e", "lat": 38.933441333333334, "type": "electric_scooter", "rental_uris": {"android": "https://dc.lft.to/lastmile_qr_scan", "ios": "https://dc.lft.to/lastmile_qr_scan"}, "lon": -77.05546566666666, "name": "f9d61ef46c1411bb9ecd1b9b56ab9e8e", "is_disabled": 0, "is_reserved": 0}, {"bike_id": "5ef853cb20072ee9b556923e0f2fab2f", "lat": 38.969000333333334, "type": "electric_bike", "rental_uris": {"android": "https://dc.lft.to/lastmile_qr_scan", "ios": "https://dc.lft.to/lastmile_qr_scan"}, "lon": -77.02926133333334, "name": "5ef853cb20072ee9b556923e0f2fab2f", "is_disabled": 0, "is_reserved": 0}, {"bike_id": "b5e104e51034dd81d7ad83b6dc12f401", "lat": 38.99632316666667, "type": "electric_scooter", "rental_uris": {"android": "https://dc.lft.to/lastmile_qr_scan", "ios": "https://dc.lft.to/lastmile_qr_scan"}, "lon": -77.0237415, "name": "b5e104e51034dd81d7ad83b6dc12f401", "is_disabled": 0, "is_reserved": 0}, {"bike_id": "93678ed7cb9c042a34aedc17e857048b", "lat": 38.869468166666664, "type": "electric_bike", "rental_uris": {"android": "https://dc.lft.to/lastmile_qr_scan", "ios": "https://dc.lft.to/lastmile_qr_scan"}, "lon": -77.09595166666666, "name": "93678ed7cb9c042a34aedc17e857048b", "is_disabled": 0, "is_reserved": 0}, {"bike_id": "244c3ef954b6b120a6ab885f71d36a15", "lat": 38.917424833333335, "type": "electric_scooter", "rental_uris": {"android": "https://dc.lft.to/lastmile_qr_scan", "ios": "https://dc.lft.to/lastmile_qr_scan"}, "lon": -77.06923733333333, "name": "244c3ef954b6b120a6ab885f71d36a15", "is_disabled": 0, "is_reserved": 0}, {"bike_id": "d06ee4c4ccc8558fa0af737f0ca9c9a6", "lat": 38.918688333333336, "type": "electric_scooter", "rental_uris": {"android": "https://dc.lft.to/lastmile_qr_scan", "ios": "https://dc.lft.to/lastmile_qr_scan"}, "lon": -77.04068816666667, "name": "d06ee4c4ccc8558fa0af737f0ca9c9a6", "is_disabled": 0, "is_reserved": 0}, {"bike_id": "ddf1313545041d54a4013f6bd061e7ed", "lat": 38.870967, "type": "electric_scooter", "rental_uris": {"android": "https://dc.lft.to/lastmile_qr_scan", "ios": "https://dc.lft.to/lastmile_qr_scan"}, "lon": -77.00750066666667, "name": "ddf1313545041d54a4013f6bd061e7ed", "is_disabled": 0, "is_reserved": 0}, {"bike_id": "7d60f862871217972d82e7ddab9ea397", "lat": 38.976496833333336, "type": "electric_bike", "rental_uris": {"android": "https://dc.lft.to/lastmile_qr_scan", "ios": "https://dc.lft.to/lastmile_qr_scan"}, "lon": -76.96267683333333, "name": "7d60f862871217972d82e7ddab9ea397", "is_disabled": 0, "is_reserved": 0}, {"bike_id": "33f72722a5b261b54131c3209c69d177", "lat": 38.901468666666666, "type": "electric_scooter", "rental_uris": {"android": "https://dc.lft.to/lastmile_qr_scan", "ios": "https://dc.lft.to/lastmile_qr_scan"}, "lon": -77.003647, "name": "33f72722a5b261b54131c3209c69d177", "is_disabled": 0, "is_reserved": 0}, {"bike_id": "d6df01ca4524d3af8501b7a656b8dc3a", "lat": 38.902148333333336, "type": "electric_scooter", "rental_uris": {"android": "https://dc.lft.to/lastmile_qr_scan", "ios": "https://dc.lft.to/lastmile_qr_scan"}, "lon": -77.02576, "name": "d6df01ca4524d3af8501b7a656b8dc3a", "is_disabled": 0, "is_reserved": 0}, {"bike_id": "33add66ba4262812902fb16bd1f6bbfb", "lat": 38.91547633333333, "type": "electric_scooter", "rental_uris": {"android": "https://dc.lft.to/lastmile_qr_scan", "ios": "https://dc.lft.to/lastmile_qr_scan"}, "lon": -77.02237833333334, "name": "33add66ba4262812902fb16bd1f6bbfb", "is_disabled": 0, "is_reserved": 0}, {"bike_id": "ca473a6471e9b17f6d0051ea01bc8667", "lat": 38.933838, "type": "electric_scooter", "rental_uris": {"android": "https://dc.lft.to/lastmile_qr_scan", "ios": "https://dc.lft.to/lastmile_qr_scan"}, "lon": -77.026013, "name": "ca473a6471e9b17f6d0051ea01bc8667", "is_disabled": 0, "is_reserved": 0}, {"bike_id": "018ac3b08e7837e680d0257b82585a0e", "lat": 38.881341166666665, "type": "electric_scooter", "rental_uris": {"android": "https://dc.lft.to/lastmile_qr_scan", "ios": "https://dc.lft.to/lastmile_qr_scan"}, "lon": -77.01468933333334, "name": "018ac3b08e7837e680d0257b82585a0e", "is_disabled": 0, "is_reserved": 0}, {"bike_id": "dc2deed7a4e468a596e1e1051e80f651", "lat": 38.8870825, "type": "electric_scooter", "rental_uris": {"android": "https://dc.lft.to/lastmile_qr_scan", "ios": "https://dc.lft.to/lastmile_qr_scan"}, "lon": -77.02175316666667, "name": "dc2deed7a4e468a596e1e1051e80f651", "is_disabled": 0, "is_reserved": 0}, {"bike_id": "247e19fa40777270949003d76efb7a87", "lat": 38.871572666666665, "type": "electric_scooter", "rental_uris": {"android": "https://dc.lft.to/lastmile_qr_scan", "ios": "https://dc.lft.to/lastmile_qr_scan"}, "lon": -76.97735566666667, "name": "247e19fa40777270949003d76efb7a87", "is_disabled": 0, "is_reserved": 0}, {"bike_id": "d6647f93c38ec2270cb3c501265e4ba5", "lat": 38.8729835, "type": "electric_bike", "rental_uris": {"android": "https://dc.lft.to/lastmile_qr_scan", "ios": "https://dc.lft.to/lastmile_qr_scan"}, "lon": -77.01089833333333, "name": "d6647f93c38ec2270cb3c501265e4ba5", "is_disabled": 0, "is_reserved": 0}, {"bike_id": "2752d4281bf8ccf1ee7b0b715408a21b", "lat": 38.919144833333334, "type": "electric_scooter", "rental_uris": {"android": "https://dc.lft.to/lastmile_qr_scan", "ios": "https://dc.lft.to/lastmile_qr_scan"}, "lon": -77.04148066666667, "name": "2752d4281bf8ccf1ee7b0b715408a21b", "is_disabled": 0, "is_reserved": 0}, {"bike_id": "a40888f04c5a5b6287ac418420166e27", "lat": 38.9095925, "type": "electric_scooter", "rental_uris": {"android": "https://dc.lft.to/lastmile_qr_scan", "ios": "https://dc.lft.to/lastmile_qr_scan"}, "lon": -77.02302566666667, "name": "a40888f04c5a5b6287ac418420166e27", "is_disabled": 0, "is_reserved": 0}, {"bike_id": "340085c0826dacf75b9cfc208f42b11a", "lat": 38.907204166666666, "type": "electric_scooter", "rental_uris": {"android": "https://dc.lft.to/lastmile_qr_scan", "ios": "https://dc.lft.to/lastmile_qr_scan"}, "lon": -76.98600083333334, "name": "340085c0826dacf75b9cfc208f42b11a", "is_disabled": 0, "is_reserved": 0}, {"bike_id": "78ab980eb5bdddd3a98c5c108cd94bff", "lat": 38.902120833333335, "type": "electric_scooter", "rental_uris": {"android": "https://dc.lft.to/lastmile_qr_scan", "ios": "https://dc.lft.to/lastmile_qr_scan"}, "lon": -77.00303083333333, "name": "78ab980eb5bdddd3a98c5c108cd94bff", "is_disabled": 0, "is_reserved": 0}, {"bike_id": "1567a233bf4defb0785fb2736838aa30", "lat": 38.85694433333333, "type": "electric_bike", "rental_uris": {"android": "https://dc.lft.to/lastmile_qr_scan", "ios": "https://dc.lft.to/lastmile_qr_scan"}, "lon": -77.06312416666667, "name": "1567a233bf4defb0785fb2736838aa30", "is_disabled": 0, "is_reserved": 0}, {"bike_id": "94ec9d8ae56e59bd2e190a2d8af31a93", "lat": 38.9387585, "type": "electric_bike", "rental_uris": {"android": "https://dc.lft.to/lastmile_qr_scan", "ios": "https://dc.lft.to/lastmile_qr_scan"}, "lon": -77.024559, "name": "94ec9d8ae56e59bd2e190a2d8af31a93", "is_disabled": 0, "is_reserved": 0}, {"bike_id": "da369251f4fa28aa6fc4c9abb538f971", "lat": 38.897250166666666, "type": "electric_scooter", "rental_uris": {"android": "https://dc.lft.to/lastmile_qr_scan", "ios": "https://dc.lft.to/lastmile_qr_scan"}, "lon": -77.00924116666667, "name": "da369251f4fa28aa6fc4c9abb538f971", "is_disabled": 0, "is_reserved": 0}, {"bike_id": "a739f4c3143268d0266718804615658e", "lat": 38.87154, "type": "electric_scooter", "rental_uris": {"android": "https://dc.lft.to/lastmile_qr_scan", "ios": "https://dc.lft.to/lastmile_qr_scan"}, "lon": -76.9749185, "name": "a739f4c3143268d0266718804615658e", "is_disabled": 0, "is_reserved": 0}, {"bike_id": "2e687179c0ddbc7c270592e8b8dc5fee", "lat": 38.905853, "type": "electric_scooter", "rental_uris": {"android": "https://dc.lft.to/lastmile_qr_scan", "ios": "https://dc.lft.to/lastmile_qr_scan"}, "lon": -77.04714283333334, "name": "2e687179c0ddbc7c270592e8b8dc5fee", "is_disabled": 0, "is_reserved": 0}, {"bike_id": "f02366bf9c8e5e037dbd932c07e9d143", "lat": 38.94636, "type": "electric_scooter", "rental_uris": {"android": "https://dc.lft.to/lastmile_qr_scan", "ios": "https://dc.lft.to/lastmile_qr_scan"}, "lon": -77.078901, "name": "f02366bf9c8e5e037dbd932c07e9d143", "is_disabled": 0, "is_reserved": 0}, {"bike_id": "2c69d2b364ea6116a8a7de44bbffd549", "lat": 38.981093333333334, "type": "electric_bike", "rental_uris": {"android": "https://dc.lft.to/lastmile_qr_scan", "ios": "https://dc.lft.to/lastmile_qr_scan"}, "lon": -77.01444516666666, "name": "2c69d2b364ea6116a8a7de44bbffd549", "is_disabled": 0, "is_reserved": 0}, {"bike_id": "5c0e3ed504d25ab883310ebf2a203933", "lat": 38.972630833333334, "type": "electric_bike", "rental_uris": {"android": "https://dc.lft.to/lastmile_qr_scan", "ios": "https://dc.lft.to/lastmile_qr_scan"}, "lon": -76.99655083333333, "name": "5c0e3ed504d25ab883310ebf2a203933", "is_disabled": 0, "is_reserved": 0}, {"bike_id": "76ba950de4e87bcaac26f86bbb845235", "lat": 38.87501533333333, "type": "electric_scooter", "rental_uris": {"android": "https://dc.lft.to/lastmile_qr_scan", "ios": "https://dc.lft.to/lastmile_qr_scan"}, "lon": -77.0144455, "name": "76ba950de4e87bcaac26f86bbb845235", "is_disabled": 0, "is_reserved": 0}, {"bike_id": "2cc8ba289937e74d6cd70e6f45c580da", "lat": 38.8989605, "type": "electric_scooter", "rental_uris": {"android": "https://dc.lft.to/lastmile_qr_scan", "ios": "https://dc.lft.to/lastmile_qr_scan"}, "lon": -76.99731383333334, "name": "2cc8ba289937e74d6cd70e6f45c580da", "is_disabled": 0, "is_reserved": 0}, {"bike_id": "2a123a931031e4a15c0947fd15b2d46f", "lat": 38.895784666666664, "type": "electric_bike", "rental_uris": {"android": "https://dc.lft.to/lastmile_qr_scan", "ios": "https://dc.lft.to/lastmile_qr_scan"}, "lon": -77.12658083333334, "name": "2a123a931031e4a15c0947fd15b2d46f", "is_disabled": 0, "is_reserved": 0}, {"bike_id": "3daf896d7de5bcefe5789739e195d2e2", "lat": 38.96209533333333, "type": "electric_bike", "rental_uris": {"android": "https://dc.lft.to/lastmile_qr_scan", "ios": "https://dc.lft.to/lastmile_qr_scan"}, "lon": -76.9354515, "name": "3daf896d7de5bcefe5789739e195d2e2", "is_disabled": 0, "is_reserved": 0}, {"bike_id": "515215473642675d6223eb2b0586dd78", "lat": 38.8773835, "type": "electric_scooter", "rental_uris": {"android": "https://dc.lft.to/lastmile_qr_scan", "ios": "https://dc.lft.to/lastmile_qr_scan"}, "lon": -76.9951605, "name": "515215473642675d6223eb2b0586dd78", "is_disabled": 0, "is_reserved": 0}, {"bike_id": "c4e62c5acce4b03c04d223b2c19c6290", "lat": 38.922672666666664, "type": "electric_scooter", "rental_uris": {"android": "https://dc.lft.to/lastmile_qr_scan", "ios": "https://dc.lft.to/lastmile_qr_scan"}, "lon": -77.03313633333333, "name": "c4e62c5acce4b03c04d223b2c19c6290", "is_disabled": 0, "is_reserved": 0}, {"bike_id": "1a9ddff54d2e5167a5cbcb8d0a06c7fe", "lat": 38.8844945, "type": "electric_scooter", "rental_uris": {"android": "https://dc.lft.to/lastmile_qr_scan", "ios": "https://dc.lft.to/lastmile_qr_scan"}, "lon": -77.008946, "name": "1a9ddff54d2e5167a5cbcb8d0a06c7fe", "is_disabled": 0, "is_reserved": 0}, {"bike_id": "3758bb592efb47ef2ed10b899195578c", "lat": 38.906168, "type": "electric_bike", "rental_uris": {"android": "https://dc.lft.to/lastmile_qr_scan", "ios": "https://dc.lft.to/lastmile_qr_scan"}, "lon": -76.95134133333333, "name": "3758bb592efb47ef2ed10b899195578c", "is_disabled": 0, "is_reserved": 0}, {"bike_id": "33a9d78e422d67d7b401dac474b75657", "lat": 38.92332716666667, "type": "electric_scooter", "rental_uris": {"android": "https://dc.lft.to/lastmile_qr_scan", "ios": "https://dc.lft.to/lastmile_qr_scan"}, "lon": -76.99912416666666, "name": "33a9d78e422d67d7b401dac474b75657", "is_disabled": 0, "is_reserved": 0}, {"bike_id": "fdee65fb1cd66123e04c3c3207aed584", "lat": 38.925346166666664, "type": "electric_bike", "rental_uris": {"android": "https://dc.lft.to/lastmile_qr_scan", "ios": "https://dc.lft.to/lastmile_qr_scan"}, "lon": -77.103323, "name": "fdee65fb1cd66123e04c3c3207aed584", "is_disabled": 0, "is_reserved": 0}, {"bike_id": "fbbfa1effa011317195306068ea47ca7", "lat": 38.87745183333333, "type": "electric_scooter", "rental_uris": {"android": "https://dc.lft.to/lastmile_qr_scan", "ios": "https://dc.lft.to/lastmile_qr_scan"}, "lon": -77.003056, "name": "fbbfa1effa011317195306068ea47ca7", "is_disabled": 0, "is_reserved": 0}, {"bike_id": "e15b84b78e3351167ba2adc5b9a2fa55", "lat": 38.87083616666666, "type": "electric_scooter", "rental_uris": {"android": "https://dc.lft.to/lastmile_qr_scan", "ios": "https://dc.lft.to/lastmile_qr_scan"}, "lon": -77.010212, "name": "e15b84b78e3351167ba2adc5b9a2fa55", "is_disabled": 0, "is_reserved": 0}, {"bike_id": "e14497391673635ab635a63cae3d3fbc", "lat": 39.0597475, "type": "electric_bike", "rental_uris": {"android": "https://dc.lft.to/lastmile_qr_scan", "ios": "https://dc.lft.to/lastmile_qr_scan"}, "lon": -76.97179316666667, "name": "e14497391673635ab635a63cae3d3fbc", "is_disabled": 0, "is_reserved": 0}, {"bike_id": "53b835783925b37aba044fdf95240ba2", "lat": 38.887086333333336, "type": "electric_scooter", "rental_uris": {"android": "https://dc.lft.to/lastmile_qr_scan", "ios": "https://dc.lft.to/lastmile_qr_scan"}, "lon": -77.002092, "name": "53b835783925b37aba044fdf95240ba2", "is_disabled": 0, "is_reserved": 0}, {"bike_id": "50f2907405eb7185e8028b741c978d59", "lat": 38.892205833333335, "type": "electric_scooter", "rental_uris": {"android": "https://dc.lft.to/lastmile_qr_scan", "ios": "https://dc.lft.to/lastmile_qr_scan"}, "lon": -77.02367683333334, "name": "50f2907405eb7185e8028b741c978d59", "is_disabled": 0, "is_reserved": 0}, {"bike_id": "9079a1e1dd452bb33afe6c0611e3b675", "lat": 38.92865833333333, "type": "electric_scooter", "rental_uris": {"android": "https://dc.lft.to/lastmile_qr_scan", "ios": "https://dc.lft.to/lastmile_qr_scan"}, "lon": -77.032468, "name": "9079a1e1dd452bb33afe6c0611e3b675", "is_disabled": 0, "is_reserved": 0}, {"bike_id": "e457a971d43eec51786034a39d249b5b", "lat": 38.91664816666667, "type": "electric_scooter", "rental_uris": {"android": "https://dc.lft.to/lastmile_qr_scan", "ios": "https://dc.lft.to/lastmile_qr_scan"}, "lon": -77.02386416666667, "name": "e457a971d43eec51786034a39d249b5b", "is_disabled": 0, "is_reserved": 0}, {"bike_id": "f05d9614f0d54a7ec8334eb7d2881cc2", "lat": 38.90036116666667, "type": "electric_scooter", "rental_uris": {"android": "https://dc.lft.to/lastmile_qr_scan", "ios": "https://dc.lft.to/lastmile_qr_scan"}, "lon": -77.04446733333333, "name": "f05d9614f0d54a7ec8334eb7d2881cc2", "is_disabled": 0, "is_reserved": 0}, {"bike_id": "c0feaa3f0883266eb69802748b61114e", "lat": 38.962370666666665, "type": "electric_bike", "rental_uris": {"android": "https://dc.lft.to/lastmile_qr_scan", "ios": "https://dc.lft.to/lastmile_qr_scan"}, "lon": -77.10763266666666, "name": "c0feaa3f0883266eb69802748b61114e", "is_disabled": 0, "is_reserved": 0}, {"bike_id": "bfb800feeea6db7ca0195fe2ce21813e", "lat": 38.856980166666666, "type": "electric_bike", "rental_uris": {"android": "https://dc.lft.to/lastmile_qr_scan", "ios": "https://dc.lft.to/lastmile_qr_scan"}, "lon": -76.99579183333333, "name": "bfb800feeea6db7ca0195fe2ce21813e", "is_disabled": 0, "is_reserved": 0}, {"bike_id": "acef820951e10b07e235a8494fa5f86b", "lat": 38.906710333333336, "type": "electric_scooter", "rental_uris": {"android": "https://dc.lft.to/lastmile_qr_scan", "ios": "https://dc.lft.to/lastmile_qr_scan"}, "lon": -77.0449695, "name": "acef820951e10b07e235a8494fa5f86b", "is_disabled": 0, "is_reserved": 0}, {"bike_id": "b495a9c75c8737772f8be3b254584da3", "lat": 38.905311166666664, "type": "electric_scooter", "rental_uris": {"android": "https://dc.lft.to/lastmile_qr_scan", "ios": "https://dc.lft.to/lastmile_qr_scan"}, "lon": -77.061254, "name": "b495a9c75c8737772f8be3b254584da3", "is_disabled": 0, "is_reserved": 0}, {"bike_id": "27224213d0d034abaee07bfc2855a9f3", "lat": 38.99036916666667, "type": "electric_scooter", "rental_uris": {"android": "https://dc.lft.to/lastmile_qr_scan", "ios": "https://dc.lft.to/lastmile_qr_scan"}, "lon": -77.0295355, "name": "27224213d0d034abaee07bfc2855a9f3", "is_disabled": 0, "is_reserved": 0}, {"bike_id": "e9e3631fe9a79385028db0e0e5a6b5a1", "lat": 38.86927816666667, "type": "electric_bike", "rental_uris": {"android": "https://dc.lft.to/lastmile_qr_scan", "ios": "https://dc.lft.to/lastmile_qr_scan"}, "lon": -76.983049, "name": "e9e3631fe9a79385028db0e0e5a6b5a1", "is_disabled": 0, "is_reserved": 0}, {"bike_id": "5c07d50658f09a274c2fce0abe3f638a", "lat": 38.920302666666664, "type": "electric_bike", "rental_uris": {"android": "https://dc.lft.to/lastmile_qr_scan", "ios": "https://dc.lft.to/lastmile_qr_scan"}, "lon": -77.03639216666667, "name": "5c07d50658f09a274c2fce0abe3f638a", "is_disabled": 0, "is_reserved": 0}, {"bike_id": "fd4519ebee42b60319abf17c2aee6d38", "lat": 38.91710783333333, "type": "electric_scooter", "rental_uris": {"android": "https://dc.lft.to/lastmile_qr_scan", "ios": "https://dc.lft.to/lastmile_qr_scan"}, "lon": -77.0263415, "name": "fd4519ebee42b60319abf17c2aee6d38", "is_disabled": 0, "is_reserved": 0}, {"bike_id": "ef028a29d1aa1d9777a6827b975303be", "lat": 38.9270595, "type": "electric_bike", "rental_uris": {"android": "https://dc.lft.to/lastmile_qr_scan", "ios": "https://dc.lft.to/lastmile_qr_scan"}, "lon": -77.07333833333334, "name": "ef028a29d1aa1d9777a6827b975303be", "is_disabled": 0, "is_reserved": 0}, {"bike_id": "25a56b0f44023c1efad2193a7b79427f", "lat": 38.94398866666667, "type": "electric_scooter", "rental_uris": {"android": "https://dc.lft.to/lastmile_qr_scan", "ios": "https://dc.lft.to/lastmile_qr_scan"}, "lon": -77.038995, "name": "25a56b0f44023c1efad2193a7b79427f", "is_disabled": 0, "is_reserved": 0}, {"bike_id": "a02a6dba78b21490fbdea5ae23ba69ab", "lat": 38.998458666666664, "type": "electric_bike", "rental_uris": {"android": "https://dc.lft.to/lastmile_qr_scan", "ios": "https://dc.lft.to/lastmile_qr_scan"}, "lon": -77.02807233333333, "name": "a02a6dba78b21490fbdea5ae23ba69ab", "is_disabled": 0, "is_reserved": 0}, {"bike_id": "23b911d9e1c73336c573628f9f5b9005", "lat": 38.871019, "type": "electric_scooter", "rental_uris": {"android": "https://dc.lft.to/lastmile_qr_scan", "ios": "https://dc.lft.to/lastmile_qr_scan"}, "lon": -77.00741966666666, "name": "23b911d9e1c73336c573628f9f5b9005", "is_disabled": 0, "is_reserved": 0}, {"bike_id": "7aeedac9da6e6373de0a6b70fe3bbd30", "lat": 38.892011333333336, "type": "electric_bike", "rental_uris": {"android": "https://dc.lft.to/lastmile_qr_scan", "ios": "https://dc.lft.to/lastmile_qr_scan"}, "lon": -76.92564683333333, "name": "7aeedac9da6e6373de0a6b70fe3bbd30", "is_disabled": 0, "is_reserved": 0}, {"bike_id": "33cb0cc9df2f700b5a85027765bf8c57", "lat": 38.996734333333336, "type": "electric_scooter", "rental_uris": {"android": "https://dc.lft.to/lastmile_qr_scan", "ios": "https://dc.lft.to/lastmile_qr_scan"}, "lon": -77.04268716666667, "name": "33cb0cc9df2f700b5a85027765bf8c57", "is_disabled": 0, "is_reserved": 0}, {"bike_id": "8569ce71ddf6e0b759dd7920615b085b", "lat": 38.8946035, "type": "electric_scooter", "rental_uris": {"android": "https://dc.lft.to/lastmile_qr_scan", "ios": "https://dc.lft.to/lastmile_qr_scan"}, "lon": -77.02800733333333, "name": "8569ce71ddf6e0b759dd7920615b085b", "is_disabled": 0, "is_reserved": 0}, {"bike_id": "4d2c9658b622663bb13e68aa2d3e69c7", "lat": 38.89472816666667, "type": "electric_bike", "rental_uris": {"android": "https://dc.lft.to/lastmile_qr_scan", "ios": "https://dc.lft.to/lastmile_qr_scan"}, "lon": -76.93780883333334, "name": "4d2c9658b622663bb13e68aa2d3e69c7", "is_disabled": 0, "is_reserved": 0}, {"bike_id": "5c53ead95515f0f3c4bfaee9d8c992f8", "lat": 38.901206, "type": "electric_scooter", "rental_uris": {"android": "https://dc.lft.to/lastmile_qr_scan", "ios": "https://dc.lft.to/lastmile_qr_scan"}, "lon": -77.02936166666667, "name": "5c53ead95515f0f3c4bfaee9d8c992f8", "is_disabled": 0, "is_reserved": 0}, {"bike_id": "6ac459ac928b686d0b6ed3a1fb1c2bab", "lat": 38.919860666666665, "type": "electric_scooter", "rental_uris": {"android": "https://dc.lft.to/lastmile_qr_scan", "ios": "https://dc.lft.to/lastmile_qr_scan"}, "lon": -76.98095866666667, "name": "6ac459ac928b686d0b6ed3a1fb1c2bab", "is_disabled": 0, "is_reserved": 0}, {"bike_id": "f3f4dc401ae2f37e94b7f9f42f8fe08c", "lat": 38.916654, "type": "electric_bike", "rental_uris": {"android": "https://dc.lft.to/lastmile_qr_scan", "ios": "https://dc.lft.to/lastmile_qr_scan"}, "lon": -77.02401133333333, "name": "f3f4dc401ae2f37e94b7f9f42f8fe08c", "is_disabled": 0, "is_reserved": 0}, {"bike_id": "9543782eeae28d67f73a84d49e2a1a22", "lat": 38.889602333333336, "type": "electric_bike", "rental_uris": {"android": "https://dc.lft.to/lastmile_qr_scan", "ios": "https://dc.lft.to/lastmile_qr_scan"}, "lon": -76.92516766666667, "name": "9543782eeae28d67f73a84d49e2a1a22", "is_disabled": 0, "is_reserved": 0}, {"bike_id": "69bb707fa93b9f2c4790773d6521ac0f", "lat": 38.916216666666664, "type": "electric_scooter", "rental_uris": {"android": "https://dc.lft.to/lastmile_qr_scan", "ios": "https://dc.lft.to/lastmile_qr_scan"}, "lon": -77.02651533333334, "name": "69bb707fa93b9f2c4790773d6521ac0f", "is_disabled": 0, "is_reserved": 0}, {"bike_id": "1de49011909f706eb3aed4c517f39d4d", "lat": 38.8300535, "type": "electric_bike", "rental_uris": {"android": "https://dc.lft.to/lastmile_qr_scan", "ios": "https://dc.lft.to/lastmile_qr_scan"}, "lon": -76.99563816666667, "name": "1de49011909f706eb3aed4c517f39d4d", "is_disabled": 0, "is_reserved": 0}, {"bike_id": "6406762a1421d6d924c703f6a4bc5e42", "lat": 38.9505315, "type": "electric_bike", "rental_uris": {"android": "https://dc.lft.to/lastmile_qr_scan", "ios": "https://dc.lft.to/lastmile_qr_scan"}, "lon": -77.01387866666667, "name": "6406762a1421d6d924c703f6a4bc5e42", "is_disabled": 0, "is_reserved": 0}, {"bike_id": "4004a663801fbe9f74e1df2ce75feaa7", "lat": 38.923299666666665, "type": "electric_scooter", "rental_uris": {"android": "https://dc.lft.to/lastmile_qr_scan", "ios": "https://dc.lft.to/lastmile_qr_scan"}, "lon": -77.03526566666666, "name": "4004a663801fbe9f74e1df2ce75feaa7", "is_disabled": 0, "is_reserved": 0}, {"bike_id": "fcccc9a7280c7e75a56218a4c69c625f", "lat": 38.91742683333333, "type": "electric_scooter", "rental_uris": {"android": "https://dc.lft.to/lastmile_qr_scan", "ios": "https://dc.lft.to/lastmile_qr_scan"}, "lon": -77.069234, "name": "fcccc9a7280c7e75a56218a4c69c625f", "is_disabled": 0, "is_reserved": 0}, {"bike_id": "be0f0ab729fb496b2af26ad095f9394b", "lat": 38.90661016666667, "type": "electric_scooter", "rental_uris": {"android": "https://dc.lft.to/lastmile_qr_scan", "ios": "https://dc.lft.to/lastmile_qr_scan"}, "lon": -76.9830425, "name": "be0f0ab729fb496b2af26ad095f9394b", "is_disabled": 0, "is_reserved": 0}, {"bike_id": "feadee26197040d316d8b6bd29cd1e1e", "lat": 38.9155705, "type": "electric_scooter", "rental_uris": {"android": "https://dc.lft.to/lastmile_qr_scan", "ios": "https://dc.lft.to/lastmile_qr_scan"}, "lon": -77.03259866666667, "name": "feadee26197040d316d8b6bd29cd1e1e", "is_disabled": 0, "is_reserved": 0}, {"bike_id": "89637b59603fe4556aaff20dbabbab6b", "lat": 38.918525833333334, "type": "electric_bike", "rental_uris": {"android": "https://dc.lft.to/lastmile_qr_scan", "ios": "https://dc.lft.to/lastmile_qr_scan"}, "lon": -76.958065, "name": "89637b59603fe4556aaff20dbabbab6b", "is_disabled": 0, "is_reserved": 0}, {"bike_id": "2b9b445d6ec964da477611c14d1343cd", "lat": 38.90801533333333, "type": "electric_scooter", "rental_uris": {"android": "https://dc.lft.to/lastmile_qr_scan", "ios": "https://dc.lft.to/lastmile_qr_scan"}, "lon": -76.99692516666667, "name": "2b9b445d6ec964da477611c14d1343cd", "is_disabled": 0, "is_reserved": 0}, {"bike_id": "1a3e6eebbaee58795222300f7c620ea9", "lat": 38.86870833333333, "type": "electric_bike", "rental_uris": {"android": "https://dc.lft.to/lastmile_qr_scan", "ios": "https://dc.lft.to/lastmile_qr_scan"}, "lon": -77.0863285, "name": "1a3e6eebbaee58795222300f7c620ea9", "is_disabled": 0, "is_reserved": 0}, {"bike_id": "d97b3fb82aa80d119fcfa082faf15a07", "lat": 38.928078666666664, "type": "electric_bike", "rental_uris": {"android": "https://dc.lft.to/lastmile_qr_scan", "ios": "https://dc.lft.to/lastmile_qr_scan"}, "lon": -76.98021833333334, "name": "d97b3fb82aa80d119fcfa082faf15a07", "is_disabled": 0, "is_reserved": 0}, {"bike_id": "0283dad9c2707c8d78045c92c2464761", "lat": 39.04662716666667, "type": "electric_bike", "rental_uris": {"android": "https://dc.lft.to/lastmile_qr_scan", "ios": "https://dc.lft.to/lastmile_qr_scan"}, "lon": -76.976301, "name": "0283dad9c2707c8d78045c92c2464761", "is_disabled": 0, "is_reserved": 0}, {"bike_id": "a2f7758b4c54c45e9dededd5224d2305", "lat": 38.9038985, "type": "electric_scooter", "rental_uris": {"android": "https://dc.lft.to/lastmile_qr_scan", "ios": "https://dc.lft.to/lastmile_qr_scan"}, "lon": -77.04856416666667, "name": "a2f7758b4c54c45e9dededd5224d2305", "is_disabled": 0, "is_reserved": 0}, {"bike_id": "1664da95866585a4c2de21be024f5cf7", "lat": 38.92168066666667, "type": "electric_scooter", "rental_uris": {"android": "https://dc.lft.to/lastmile_qr_scan", "ios": "https://dc.lft.to/lastmile_qr_scan"}, "lon": -76.99399466666667, "name": "1664da95866585a4c2de21be024f5cf7", "is_disabled": 0, "is_reserved": 0}, {"bike_id": "31dec089272fc92eb671924f37a77a3f", "lat": 38.904649166666665, "type": "electric_scooter", "rental_uris": {"android": "https://dc.lft.to/lastmile_qr_scan", "ios": "https://dc.lft.to/lastmile_qr_scan"}, "lon": -77.01429533333334, "name": "31dec089272fc92eb671924f37a77a3f", "is_disabled": 0, "is_reserved": 0}, {"bike_id": "12945a07403dbad89a1a32c8ece38100", "lat": 38.94332683333333, "type": "electric_bike", "rental_uris": {"android": "https://dc.lft.to/lastmile_qr_scan", "ios": "https://dc.lft.to/lastmile_qr_scan"}, "lon": -77.0605235, "name": "12945a07403dbad89a1a32c8ece38100", "is_disabled": 0, "is_reserved": 0}, {"bike_id": "005ba47a21fcee25f546fa51be9374d8", "lat": 38.999124333333334, "type": "electric_scooter", "rental_uris": {"android": "https://dc.lft.to/lastmile_qr_scan", "ios": "https://dc.lft.to/lastmile_qr_scan"}, "lon": -77.04037416666667, "name": "005ba47a21fcee25f546fa51be9374d8", "is_disabled": 0, "is_reserved": 0}, {"bike_id": "b4141a14637bb26da3fd508d3c1d142a", "lat": 38.865480166666664, "type": "electric_scooter", "rental_uris": {"android": "https://dc.lft.to/lastmile_qr_scan", "ios": "https://dc.lft.to/lastmile_qr_scan"}, "lon": -76.98803416666667, "name": "b4141a14637bb26da3fd508d3c1d142a", "is_disabled": 0, "is_reserved": 0}, {"bike_id": "61013ae2cd32386d884727631990c563", "lat": 38.89725266666667, "type": "electric_scooter", "rental_uris": {"android": "https://dc.lft.to/lastmile_qr_scan", "ios": "https://dc.lft.to/lastmile_qr_scan"}, "lon": -77.02988233333333, "name": "61013ae2cd32386d884727631990c563", "is_disabled": 0, "is_reserved": 0}, {"bike_id": "97c3414f3e8e45663da088a6a478e57a", "lat": 39.034033666666666, "type": "electric_bike", "rental_uris": {"android": "https://dc.lft.to/lastmile_qr_scan", "ios": "https://dc.lft.to/lastmile_qr_scan"}, "lon": -76.999539, "name": "97c3414f3e8e45663da088a6a478e57a", "is_disabled": 0, "is_reserved": 0}, {"bike_id": "8ea877c7c7db28b3f49098292b24f7a1", "lat": 38.887048166666666, "type": "electric_scooter", "rental_uris": {"android": "https://dc.lft.to/lastmile_qr_scan", "ios": "https://dc.lft.to/lastmile_qr_scan"}, "lon": -77.02204466666667, "name": "8ea877c7c7db28b3f49098292b24f7a1", "is_disabled": 0, "is_reserved": 0}, {"bike_id": "51c7d1831ed26423082b6be9819d7c70", "lat": 38.901893666666666, "type": "electric_scooter", "rental_uris": {"android": "https://dc.lft.to/lastmile_qr_scan", "ios": "https://dc.lft.to/lastmile_qr_scan"}, "lon": -76.9984125, "name": "51c7d1831ed26423082b6be9819d7c70", "is_disabled": 0, "is_reserved": 0}, {"bike_id": "54475058aa934b0a7e4978f6591a80d6", "lat": 38.9260755, "type": "electric_scooter", "rental_uris": {"android": "https://dc.lft.to/lastmile_qr_scan", "ios": "https://dc.lft.to/lastmile_qr_scan"}, "lon": -77.038575, "name": "54475058aa934b0a7e4978f6591a80d6", "is_disabled": 0, "is_reserved": 0}, {"bike_id": "e2f1a683620045e709699b32f1cb61f4", "lat": 38.91417, "type": "electric_scooter", "rental_uris": {"android": "https://dc.lft.to/lastmile_qr_scan", "ios": "https://dc.lft.to/lastmile_qr_scan"}, "lon": -77.03142166666666, "name": "e2f1a683620045e709699b32f1cb61f4", "is_disabled": 0, "is_reserved": 0}, {"bike_id": "af7bca534f5a7eb89131ad6f62761ff6", "lat": 38.90046516666666, "type": "electric_scooter", "rental_uris": {"android": "https://dc.lft.to/lastmile_qr_scan", "ios": "https://dc.lft.to/lastmile_qr_scan"}, "lon": -77.04895, "name": "af7bca534f5a7eb89131ad6f62761ff6", "is_disabled": 0, "is_reserved": 0}, {"bike_id": "783525ac3fed222a278484940091e799", "lat": 38.889346833333335, "type": "electric_bike", "rental_uris": {"android": "https://dc.lft.to/lastmile_qr_scan", "ios": "https://dc.lft.to/lastmile_qr_scan"}, "lon": -77.162268, "name": "783525ac3fed222a278484940091e799", "is_disabled": 0, "is_reserved": 0}, {"bike_id": "741dd7bd06d0b959ca672dc87981e103", "lat": 38.87826483333333, "type": "electric_scooter", "rental_uris": {"android": "https://dc.lft.to/lastmile_qr_scan", "ios": "https://dc.lft.to/lastmile_qr_scan"}, "lon": -77.01594133333333, "name": "741dd7bd06d0b959ca672dc87981e103", "is_disabled": 0, "is_reserved": 0}, {"bike_id": "2980dd8889cf8c7d7d75e03769bca9ef", "lat": 38.899154, "type": "electric_bike", "rental_uris": {"android": "https://dc.lft.to/lastmile_qr_scan", "ios": "https://dc.lft.to/lastmile_qr_scan"}, "lon": -76.94255, "name": "2980dd8889cf8c7d7d75e03769bca9ef", "is_disabled": 0, "is_reserved": 0}, {"bike_id": "000242227c0c85b981c4f33b3bfdde72", "lat": 38.894406000000004, "type": "electric_scooter", "rental_uris": {"android": "https://dc.lft.to/lastmile_qr_scan", "ios": "https://dc.lft.to/lastmile_qr_scan"}, "lon": -76.9230085, "name": "000242227c0c85b981c4f33b3bfdde72", "is_disabled": 0, "is_reserved": 0}, {"bike_id": "6887462b7638a16b32e5249282dbbae4", "lat": 38.95999033333333, "type": "electric_bike", "rental_uris": {"android": "https://dc.lft.to/lastmile_qr_scan", "ios": "https://dc.lft.to/lastmile_qr_scan"}, "lon": -77.08368733333333, "name": "6887462b7638a16b32e5249282dbbae4", "is_disabled": 0, "is_reserved": 0}, {"bike_id": "8e4c007c6eb763912e7e90616adca789", "lat": 38.934123666666665, "type": "electric_scooter", "rental_uris": {"android": "https://dc.lft.to/lastmile_qr_scan", "ios": "https://dc.lft.to/lastmile_qr_scan"}, "lon": -77.04423066666666, "name": "8e4c007c6eb763912e7e90616adca789", "is_disabled": 0, "is_reserved": 0}, {"bike_id": "2908cfb5ebf2978e5d9cecdb88741949", "lat": 38.87353616666667, "type": "electric_scooter", "rental_uris": {"android": "https://dc.lft.to/lastmile_qr_scan", "ios": "https://dc.lft.to/lastmile_qr_scan"}, "lon": -77.0023055, "name": "2908cfb5ebf2978e5d9cecdb88741949", "is_disabled": 0, "is_reserved": 0}, {"bike_id": "997113da627a4c33fc6f730fe22af0e5", "lat": 38.8972655, "type": "electric_scooter", "rental_uris": {"android": "https://dc.lft.to/lastmile_qr_scan", "ios": "https://dc.lft.to/lastmile_qr_scan"}, "lon": -77.00378283333333, "name": "997113da627a4c33fc6f730fe22af0e5", "is_disabled": 0, "is_reserved": 0}, {"bike_id": "880016dfa3b49f86d8bad4e942a76092", "lat": 38.90692033333333, "type": "electric_scooter", "rental_uris": {"android": "https://dc.lft.to/lastmile_qr_scan", "ios": "https://dc.lft.to/lastmile_qr_scan"}, "lon": -77.03677083333334, "name": "880016dfa3b49f86d8bad4e942a76092", "is_disabled": 0, "is_reserved": 0}, {"bike_id": "2fe0f839111178e0ecc20cc9f603751a", "lat": 38.8962165, "type": "electric_scooter", "rental_uris": {"android": "https://dc.lft.to/lastmile_qr_scan", "ios": "https://dc.lft.to/lastmile_qr_scan"}, "lon": -77.027925, "name": "2fe0f839111178e0ecc20cc9f603751a", "is_disabled": 0, "is_reserved": 0}, {"bike_id": "eb0070ff4ab5e84d41cfe45055488e44", "lat": 38.90716583333333, "type": "electric_scooter", "rental_uris": {"android": "https://dc.lft.to/lastmile_qr_scan", "ios": "https://dc.lft.to/lastmile_qr_scan"}, "lon": -77.0014835, "name": "eb0070ff4ab5e84d41cfe45055488e44", "is_disabled": 0, "is_reserved": 0}, {"bike_id": "5e604b872521846ae1261ab8afd99353", "lat": 38.88533866666667, "type": "electric_scooter", "rental_uris": {"android": "https://dc.lft.to/lastmile_qr_scan", "ios": "https://dc.lft.to/lastmile_qr_scan"}, "lon": -76.9848585, "name": "5e604b872521846ae1261ab8afd99353", "is_disabled": 0, "is_reserved": 0}, {"bike_id": "414e6e036000f2632f887386c46bf0b7", "lat": 38.92154083333333, "type": "electric_scooter", "rental_uris": {"android": "https://dc.lft.to/lastmile_qr_scan", "ios": "https://dc.lft.to/lastmile_qr_scan"}, "lon": -77.07238166666667, "name": "414e6e036000f2632f887386c46bf0b7", "is_disabled": 0, "is_reserved": 0}, {"bike_id": "b83c1f1cc58772932e8b314368b4ffda", "lat": 38.90233516666667, "type": "electric_scooter", "rental_uris": {"android": "https://dc.lft.to/lastmile_qr_scan", "ios": "https://dc.lft.to/lastmile_qr_scan"}, "lon": -77.04570566666666, "name": "b83c1f1cc58772932e8b314368b4ffda", "is_disabled": 0, "is_reserved": 0}, {"bike_id": "d67a57896a7351a6a53eeda5a8dfde64", "lat": 38.843560833333335, "type": "electric_bike", "rental_uris": {"android": "https://dc.lft.to/lastmile_qr_scan", "ios": "https://dc.lft.to/lastmile_qr_scan"}, "lon": -77.0804925, "name": "d67a57896a7351a6a53eeda5a8dfde64", "is_disabled": 0, "is_reserved": 0}, {"bike_id": "2887c08cac2045dcec23754413b3c10f", "lat": 38.8465805, "type": "electric_bike", "rental_uris": {"android": "https://dc.lft.to/lastmile_qr_scan", "ios": "https://dc.lft.to/lastmile_qr_scan"}, "lon": -76.96890616666667, "name": "2887c08cac2045dcec23754413b3c10f", "is_disabled": 0, "is_reserved": 0}, {"bike_id": "32e3a7b5b663af2e9d282ee2fc37adf8", "lat": 38.89456466666667, "type": "electric_bike", "rental_uris": {"android": "https://dc.lft.to/lastmile_qr_scan", "ios": "https://dc.lft.to/lastmile_qr_scan"}, "lon": -76.97036266666667, "name": "32e3a7b5b663af2e9d282ee2fc37adf8", "is_disabled": 0, "is_reserved": 0}, {"bike_id": "8050995960782b3f18bc2c581c2845d7", "lat": 38.9124645, "type": "electric_bike", "rental_uris": {"android": "https://dc.lft.to/lastmile_qr_scan", "ios": "https://dc.lft.to/lastmile_qr_scan"}, "lon": -77.138444, "name": "8050995960782b3f18bc2c581c2845d7", "is_disabled": 0, "is_reserved": 0}, {"bike_id": "008d016bccd3ed3f052df31d8f15e1a5", "lat": 38.881345, "type": "electric_scooter", "rental_uris": {"android": "https://dc.lft.to/lastmile_qr_scan", "ios": "https://dc.lft.to/lastmile_qr_scan"}, "lon": -77.00387883333333, "name": "008d016bccd3ed3f052df31d8f15e1a5", "is_disabled": 0, "is_reserved": 0}, {"bike_id": "c299c5c998c52ddf69dde235d1e522fc", "lat": 38.9276455, "type": "electric_scooter", "rental_uris": {"android": "https://dc.lft.to/lastmile_qr_scan", "ios": "https://dc.lft.to/lastmile_qr_scan"}, "lon": -77.031079, "name": "c299c5c998c52ddf69dde235d1e522fc", "is_disabled": 0, "is_reserved": 0}, {"bike_id": "aa1f77ae196082df48e01518145b0ed1", "lat": 38.90932766666667, "type": "electric_bike", "rental_uris": {"android": "https://dc.lft.to/lastmile_qr_scan", "ios": "https://dc.lft.to/lastmile_qr_scan"}, "lon": -77.05462033333333, "name": "aa1f77ae196082df48e01518145b0ed1", "is_disabled": 0, "is_reserved": 0}, {"bike_id": "4f1873af09a2abed30cd5b3168bb974e", "lat": 38.888362666666666, "type": "electric_scooter", "rental_uris": {"android": "https://dc.lft.to/lastmile_qr_scan", "ios": "https://dc.lft.to/lastmile_qr_scan"}, "lon": -76.99069416666667, "name": "4f1873af09a2abed30cd5b3168bb974e", "is_disabled": 0, "is_reserved": 0}, {"bike_id": "6e64af1ef0139a1082c51647f52fa01a", "lat": 38.90094583333333, "type": "electric_scooter", "rental_uris": {"android": "https://dc.lft.to/lastmile_qr_scan", "ios": "https://dc.lft.to/lastmile_qr_scan"}, "lon": -77.0273135, "name": "6e64af1ef0139a1082c51647f52fa01a", "is_disabled": 0, "is_reserved": 0}, {"bike_id": "6b4b7572ccafd241adb95d610ed405cc", "lat": 38.924308833333335, "type": "electric_scooter", "rental_uris": {"android": "https://dc.lft.to/lastmile_qr_scan", "ios": "https://dc.lft.to/lastmile_qr_scan"}, "lon": -76.997207, "name": "6b4b7572ccafd241adb95d610ed405cc", "is_disabled": 0, "is_reserved": 0}, {"bike_id": "bbb19d90aeec8b06bb806e2e809c1482", "lat": 38.932042333333335, "type": "electric_scooter", "rental_uris": {"android": "https://dc.lft.to/lastmile_qr_scan", "ios": "https://dc.lft.to/lastmile_qr_scan"}, "lon": -77.038779, "name": "bbb19d90aeec8b06bb806e2e809c1482", "is_disabled": 0, "is_reserved": 0}, {"bike_id": "c5b547e9be9ec944c0b7cda5b19e89b2", "lat": 38.897813666666664, "type": "electric_scooter", "rental_uris": {"android": "https://dc.lft.to/lastmile_qr_scan", "ios": "https://dc.lft.to/lastmile_qr_scan"}, "lon": -77.01978883333334, "name": "c5b547e9be9ec944c0b7cda5b19e89b2", "is_disabled": 0, "is_reserved": 0}, {"bike_id": "5233bc017cb260177054875830510606", "lat": 38.90496316666667, "type": "electric_scooter", "rental_uris": {"android": "https://dc.lft.to/lastmile_qr_scan", "ios": "https://dc.lft.to/lastmile_qr_scan"}, "lon": -77.0019135, "name": "5233bc017cb260177054875830510606", "is_disabled": 0, "is_reserved": 0}, {"bike_id": "7042e33cec2abee341dd150e50e6bec4", "lat": 38.91981883333333, "type": "electric_scooter", "rental_uris": {"android": "https://dc.lft.to/lastmile_qr_scan", "ios": "https://dc.lft.to/lastmile_qr_scan"}, "lon": -77.04170266666667, "name": "7042e33cec2abee341dd150e50e6bec4", "is_disabled": 0, "is_reserved": 0}, {"bike_id": "db0704339f5f43baa7b509e920bf5333", "lat": 38.9133375, "type": "electric_bike", "rental_uris": {"android": "https://dc.lft.to/lastmile_qr_scan", "ios": "https://dc.lft.to/lastmile_qr_scan"}, "lon": -77.2300085, "name": "db0704339f5f43baa7b509e920bf5333", "is_disabled": 0, "is_reserved": 0}, {"bike_id": "82a2eef3f38870ab627ba4a3805c19cf", "lat": 38.902741166666665, "type": "electric_scooter", "rental_uris": {"android": "https://dc.lft.to/lastmile_qr_scan", "ios": "https://dc.lft.to/lastmile_qr_scan"}, "lon": -77.03664033333334, "name": "82a2eef3f38870ab627ba4a3805c19cf", "is_disabled": 0, "is_reserved": 0}, {"bike_id": "836d4bf1e1d03fea79eb6765e50caced", "lat": 38.929362, "type": "electric_scooter", "rental_uris": {"android": "https://dc.lft.to/lastmile_qr_scan", "ios": "https://dc.lft.to/lastmile_qr_scan"}, "lon": -76.99731066666666, "name": "836d4bf1e1d03fea79eb6765e50caced", "is_disabled": 0, "is_reserved": 0}, {"bike_id": "c15e0f5ec54a89227b207e3c4a89e551", "lat": 38.89967433333333, "type": "electric_scooter", "rental_uris": {"android": "https://dc.lft.to/lastmile_qr_scan", "ios": "https://dc.lft.to/lastmile_qr_scan"}, "lon": -77.05512866666666, "name": "c15e0f5ec54a89227b207e3c4a89e551", "is_disabled": 0, "is_reserved": 0}, {"bike_id": "da2f885f33ca2cecdae40cb265ee264f", "lat": 38.96358516666667, "type": "electric_bike", "rental_uris": {"android": "https://dc.lft.to/lastmile_qr_scan", "ios": "https://dc.lft.to/lastmile_qr_scan"}, "lon": -76.98092366666667, "name": "da2f885f33ca2cecdae40cb265ee264f", "is_disabled": 0, "is_reserved": 0}, {"bike_id": "caceb835dab6d1392434d9fd5cb331d2", "lat": 38.89374633333333, "type": "electric_bike", "rental_uris": {"android": "https://dc.lft.to/lastmile_qr_scan", "ios": "https://dc.lft.to/lastmile_qr_scan"}, "lon": -76.92739933333333, "name": "caceb835dab6d1392434d9fd5cb331d2", "is_disabled": 0, "is_reserved": 0}, {"bike_id": "32e7d3abc08e04bb1ab76f748050ac15", "lat": 38.91335616666667, "type": "electric_scooter", "rental_uris": {"android": "https://dc.lft.to/lastmile_qr_scan", "ios": "https://dc.lft.to/lastmile_qr_scan"}, "lon": -77.04574716666667, "name": "32e7d3abc08e04bb1ab76f748050ac15", "is_disabled": 0, "is_reserved": 0}, {"bike_id": "8ed99d4858751ab7dae01a1a1dcf5f4a", "lat": 38.8967845, "type": "electric_scooter", "rental_uris": {"android": "https://dc.lft.to/lastmile_qr_scan", "ios": "https://dc.lft.to/lastmile_qr_scan"}, "lon": -76.982232, "name": "8ed99d4858751ab7dae01a1a1dcf5f4a", "is_disabled": 0, "is_reserved": 0}, {"bike_id": "c148020820fe046f629c2a6379cfebf3", "lat": 38.995379666666665, "type": "electric_scooter", "rental_uris": {"android": "https://dc.lft.to/lastmile_qr_scan", "ios": "https://dc.lft.to/lastmile_qr_scan"}, "lon": -77.024799, "name": "c148020820fe046f629c2a6379cfebf3", "is_disabled": 0, "is_reserved": 0}, {"bike_id": "c1c5893e2585c6ae2bfeb346b33d28ec", "lat": 38.90076116666667, "type": "electric_scooter", "rental_uris": {"android": "https://dc.lft.to/lastmile_qr_scan", "ios": "https://dc.lft.to/lastmile_qr_scan"}, "lon": -77.044609, "name": "c1c5893e2585c6ae2bfeb346b33d28ec", "is_disabled": 0, "is_reserved": 0}, {"bike_id": "834999deb3b6199e6b351e62c91f6369", "lat": 38.983, "type": "electric_bike", "rental_uris": {"android": "https://dc.lft.to/lastmile_qr_scan", "ios": "https://dc.lft.to/lastmile_qr_scan"}, "lon": -77.09259833333333, "name": "834999deb3b6199e6b351e62c91f6369", "is_disabled": 0, "is_reserved": 0}, {"bike_id": "9a20b1434e43a0e454a9b309fad4e854", "lat": 38.87986433333333, "type": "electric_scooter", "rental_uris": {"android": "https://dc.lft.to/lastmile_qr_scan", "ios": "https://dc.lft.to/lastmile_qr_scan"}, "lon": -77.00503816666667, "name": "9a20b1434e43a0e454a9b309fad4e854", "is_disabled": 0, "is_reserved": 0}, {"bike_id": "7f3d79cc9f2df2550fce5603f1369ba6", "lat": 38.92376983333333, "type": "electric_bike", "rental_uris": {"android": "https://dc.lft.to/lastmile_qr_scan", "ios": "https://dc.lft.to/lastmile_qr_scan"}, "lon": -77.040249, "name": "7f3d79cc9f2df2550fce5603f1369ba6", "is_disabled": 0, "is_reserved": 0}, {"bike_id": "f5ca81a34f91fc57f40d7c623897600e", "lat": 38.827832666666666, "type": "electric_bike", "rental_uris": {"android": "https://dc.lft.to/lastmile_qr_scan", "ios": "https://dc.lft.to/lastmile_qr_scan"}, "lon": -77.06030616666666, "name": "f5ca81a34f91fc57f40d7c623897600e", "is_disabled": 0, "is_reserved": 0}, {"bike_id": "72de64b1548e43796dc4abb8b86d4cce", "lat": 38.920998166666664, "type": "electric_scooter", "rental_uris": {"android": "https://dc.lft.to/lastmile_qr_scan", "ios": "https://dc.lft.to/lastmile_qr_scan"}, "lon": -76.99458316666667, "name": "72de64b1548e43796dc4abb8b86d4cce", "is_disabled": 0, "is_reserved": 0}, {"bike_id": "3f2dc0fd95e32d1abcfe7cf19f61da54", "lat": 38.935138333333335, "type": "electric_scooter", "rental_uris": {"android": "https://dc.lft.to/lastmile_qr_scan", "ios": "https://dc.lft.to/lastmile_qr_scan"}, "lon": -77.01927316666666, "name": "3f2dc0fd95e32d1abcfe7cf19f61da54", "is_disabled": 0, "is_reserved": 0}, {"bike_id": "f2b95732c4b62de88fce8c1a6daefaa7", "lat": 38.941734333333336, "type": "electric_bike", "rental_uris": {"android": "https://dc.lft.to/lastmile_qr_scan", "ios": "https://dc.lft.to/lastmile_qr_scan"}, "lon": -77.09333983333333, "name": "f2b95732c4b62de88fce8c1a6daefaa7", "is_disabled": 0, "is_reserved": 0}, {"bike_id": "536d4b7297d500421383f321f44dcaf3", "lat": 38.917320333333336, "type": "electric_scooter", "rental_uris": {"android": "https://dc.lft.to/lastmile_qr_scan", "ios": "https://dc.lft.to/lastmile_qr_scan"}, "lon": -77.03661916666667, "name": "536d4b7297d500421383f321f44dcaf3", "is_disabled": 0, "is_reserved": 0}, {"bike_id": "715fa4a3eb2c049b44f1717171019c57", "lat": 38.902135, "type": "electric_bike", "rental_uris": {"android": "https://dc.lft.to/lastmile_qr_scan", "ios": "https://dc.lft.to/lastmile_qr_scan"}, "lon": -76.974089, "name": "715fa4a3eb2c049b44f1717171019c57", "is_disabled": 0, "is_reserved": 0}, {"bike_id": "84672c56b6a5340bc84cbdf1e071d1b9", "lat": 38.9088075, "type": "electric_scooter", "rental_uris": {"android": "https://dc.lft.to/lastmile_qr_scan", "ios": "https://dc.lft.to/lastmile_qr_scan"}, "lon": -76.991471, "name": "84672c56b6a5340bc84cbdf1e071d1b9", "is_disabled": 0, "is_reserved": 0}, {"bike_id": "009caea515dfbfd397aa6ef98201da7a", "lat": 38.898998166666665, "type": "electric_scooter", "rental_uris": {"android": "https://dc.lft.to/lastmile_qr_scan", "ios": "https://dc.lft.to/lastmile_qr_scan"}, "lon": -76.99259866666667, "name": "009caea515dfbfd397aa6ef98201da7a", "is_disabled": 0, "is_reserved": 0}, {"bike_id": "494ca8eee2dd123805c7bf414111e6f0", "lat": 38.90076616666666, "type": "electric_scooter", "rental_uris": {"android": "https://dc.lft.to/lastmile_qr_scan", "ios": "https://dc.lft.to/lastmile_qr_scan"}, "lon": -77.04876883333333, "name": "494ca8eee2dd123805c7bf414111e6f0", "is_disabled": 0, "is_reserved": 0}, {"bike_id": "be3edee887874e0d38064adadfc37278", "lat": 38.90881483333333, "type": "electric_scooter", "rental_uris": {"android": "https://dc.lft.to/lastmile_qr_scan", "ios": "https://dc.lft.to/lastmile_qr_scan"}, "lon": -77.0345175, "name": "be3edee887874e0d38064adadfc37278", "is_disabled": 0, "is_reserved": 0}, {"bike_id": "3d382f5dc2ba9a3d0ae393c83763b379", "lat": 39.02864683333333, "type": "electric_bike", "rental_uris": {"android": "https://dc.lft.to/lastmile_qr_scan", "ios": "https://dc.lft.to/lastmile_qr_scan"}, "lon": -77.10459366666667, "name": "3d382f5dc2ba9a3d0ae393c83763b379", "is_disabled": 0, "is_reserved": 0},