{"data": {"bikes": [{"rental_uris": {"ios": "https://dc.lft.to/lastmile_qr_scan", "android": "https://dc.lft.to/lastmile_qr_scan"}, "lat": 38.85209483333333, "is_disabled": 0, "lon": -76.980506, "name": "c0ee1ffce0cd89ef10b9c3ac015e29d0", "type": "electric_bike", "bike_id": "c0ee1ffce0cd89ef10b9c3ac015e29d0", "is_reserved": 0}, {"rental_uris": {"ios": "https://dc.lft.to/lastmile_qr_scan", "android": "https://dc.lft.to/lastmile_qr_scan"}, "lat": 38.870678166666664, "is_disabled": 0, "lon": -77.01227966666667, "name": "955ffe0cc2db713d0a3588d0627d4821", "type": "electric_bike", "bike_id": "955ffe0cc2db713d0a3588d0627d4821", "is_reserved": 0}, {"rental_uris": {"ios": "https://dc.lft.to/lastmile_qr_scan", "android": "https://dc.lft.to/lastmile_qr_scan"}, "lat": 38.923414666666666, "is_disabled": 0, "lon": -77.0329185, "name": "a38a9818b36d6142aa581a1a3c2189c2", "type": "electric_scooter", "bike_id": "a38a9818b36d6142aa581a1a3c2189c2", "is_reserved": 0}, {"rental_uris": {"ios": "https://dc.lft.to/lastmile_qr_scan", "android": "https://dc.lft.to/lastmile_qr_scan"}, "lat": 38.93345766666667, "is_disabled": 0, "lon": -77.0252015, "name": "2a52c0316959b66afdfdc4cde14e148c", "type": "electric_scooter", "bike_id": "2a52c0316959b66afdfdc4cde14e148c", "is_reserved": 0}, {"rental_uris": {"ios": "https://dc.lft.to/lastmile_qr_scan", "android": "https://dc.lft.to/lastmile_qr_scan"}, "lat": 38.91973083333333, "is_disabled": 0, "lon": -76.9925945, "name": "985e94ff89bbba39e32eeae5f51796a5", "type": "electric_scooter", "bike_id": "985e94ff89bbba39e32eeae5f51796a5", "is_reserved": 0}, {"rental_uris": {"ios": "https://dc.lft.to/lastmile_qr_scan", "android": "https://dc.lft.to/lastmile_qr_scan"}, "lat": 38.89306233333333, "is_disabled": 0, "lon": -76.95134466666667, "name": "b26634d232d5dedd1ff289bf5d4b5dc1", "type": "electric_bike", "bike_id": "b26634d232d5dedd1ff289bf5d4b5dc1", "is_reserved": 0}, {"rental_uris": {"ios": "https://dc.lft.to/lastmile_qr_scan", "android": "https://dc.lft.to/lastmile_qr_scan"}, "lat": 38.90372966666666, "is_disabled": 0, "lon": -77.01600283333333, "name": "607f7c6a6bc2abe167dbcbddcbbf4c6b", "type": "electric_scooter", "bike_id": "607f7c6a6bc2abe167dbcbddcbbf4c6b", "is_reserved": 0}, {"rental_uris": {"ios": "https://dc.lft.to/lastmile_qr_scan", "android": "https://dc.lft.to/lastmile_qr_scan"}, "lat": 38.8791885, "is_disabled": 0, "lon": -77.00561783333333, "name": "23dfb3b97da24eccacd18ea5ad374b7f", "type": "electric_scooter", "bike_id": "23dfb3b97da24eccacd18ea5ad374b7f", "is_reserved": 0}, {"rental_uris": {"ios": "https://dc.lft.to/lastmile_qr_scan", "android": "https://dc.lft.to/lastmile_qr_scan"}, "lat": 38.92219983333333, "is_disabled": 0, "lon": -77.03513816666667, "name": "1cc089058c6bac81d2c2675780ed2bbe", "type": "electric_scooter", "bike_id": "1cc089058c6bac81d2c2675780ed2bbe", "is_reserved": 0}, {"rental_uris": {"ios": "https://dc.lft.to/lastmile_qr_scan", "android": "https://dc.lft.to/lastmile_qr_scan"}, "lat": 38.89514633333334, "is_disabled": 0, "lon": -77.02573683333334, "name": "f6fc4ea90e0eafc51402e932c7568580", "type": "electric_scooter", "bike_id": "f6fc4ea90e0eafc51402e932c7568580", "is_reserved": 0}, {"rental_uris": {"ios": "https://dc.lft.to/lastmile_qr_scan", "android": "https://dc.lft.to/lastmile_qr_scan"}, "lat": 39.05445316666667, "is_disabled": 0, "lon": -77.11719433333333, "name": "2ef169b395fc22579acd1017183c2576", "type": "electric_bike", "bike_id": "2ef169b395fc22579acd1017183c2576", "is_reserved": 0}, {"rental_uris": {"ios": "https://dc.lft.to/lastmile_qr_scan", "android": "https://dc.lft.to/lastmile_qr_scan"}, "lat": 38.9271705, "is_disabled": 0, "lon": -76.96123266666666, "name": "5fb226fc5d3f8466c9c63ae5fcb56d56", "type": "electric_bike", "bike_id": "5fb226fc5d3f8466c9c63ae5fcb56d56", "is_reserved": 0}, {"rental_uris": {"ios": "https://dc.lft.to/lastmile_qr_scan", "android": "https://dc.lft.to/lastmile_qr_scan"}, "lat": 38.899962333333335, "is_disabled": 0, "lon": -77.04658933333333, "name": "eb32df39af95048be2024d8744a1b9e8", "type": "electric_scooter", "bike_id": "eb32df39af95048be2024d8744a1b9e8", "is_reserved": 0}, {"rental_uris": {"ios": "https://dc.lft.to/lastmile_qr_scan", "android": "https://dc.lft.to/lastmile_qr_scan"}, "lat": 38.8971965, "is_disabled": 0, "lon": -76.8854785, "name": "3fcf3d4171951a297cc33a4977533a62", "type": "electric_bike", "bike_id": "3fcf3d4171951a297cc33a4977533a62", "is_reserved": 0}, {"rental_uris": {"ios": "https://dc.lft.to/lastmile_qr_scan", "android": "https://dc.lft.to/lastmile_qr_scan"}, "lat": 38.95644733333334, "is_disabled": 0, "lon": -77.02305866666667, "name": "d8d12caab2e54e6a9babe9c68c6ddb46", "type": "electric_bike", "bike_id": "d8d12caab2e54e6a9babe9c68c6ddb46", "is_reserved": 0}, {"rental_uris": {"ios": "https://dc.lft.to/lastmile_qr_scan", "android": "https://dc.lft.to/lastmile_qr_scan"}, "lat": 38.965215666666666, "is_disabled": 0, "lon": -77.02755833333333, "name": "4f7680241e4ee9406002239ac2a15018", "type": "electric_bike", "bike_id": "4f7680241e4ee9406002239ac2a15018", "is_reserved": 0}, {"rental_uris": {"ios": "https://dc.lft.to/lastmile_qr_scan", "android": "https://dc.lft.to/lastmile_qr_scan"}, "lat": 38.90401116666666, "is_disabled": 0, "lon": -77.06451983333334, "name": "0c666698e5109b8333585ed2f7f5b413", "type": "electric_scooter", "bike_id": "0c666698e5109b8333585ed2f7f5b413", "is_reserved": 0}, {"rental_uris": {"ios": "https://dc.lft.to/lastmile_qr_scan", "android": "https://dc.lft.to/lastmile_qr_scan"}, "lat": 39.023543333333336, "is_disabled": 0, "lon": -77.02759316666666, "name": "32d90016d6cf92bca363383ba6251ca3", "type": "electric_scooter", "bike_id": "32d90016d6cf92bca363383ba6251ca3", "is_reserved": 0}, {"rental_uris": {"ios": "https://dc.lft.to/lastmile_qr_scan", "android": "https://dc.lft.to/lastmile_qr_scan"}, "lat": 38.93607133333333, "is_disabled": 0, "lon": -77.05859333333333, "name": "9e23f27e0037be0ae5495b40fae420b3", "type": "electric_scooter", "bike_id": "9e23f27e0037be0ae5495b40fae420b3", "is_reserved": 0}, {"rental_uris": {"ios": "https://dc.lft.to/lastmile_qr_scan", "android": "https://dc.lft.to/lastmile_qr_scan"}, "lat": 38.9171265, "is_disabled": 0, "lon": -77.04082516666666, "name": "a15d58979431b7b6f0784572d48a6093", "type": "electric_scooter", "bike_id": "a15d58979431b7b6f0784572d48a6093", "is_reserved": 0}, {"rental_uris": {"ios": "https://dc.lft.to/lastmile_qr_scan", "android": "https://dc.lft.to/lastmile_qr_scan"}, "lat": 38.98950583333333, "is_disabled": 0, "lon": -77.02604133333334, "name": "7ee7c8cdbf4339d55d50292558a5db7d", "type": "electric_scooter", "bike_id": "7ee7c8cdbf4339d55d50292558a5db7d", "is_reserved": 0}, {"rental_uris": {"ios": "https://dc.lft.to/lastmile_qr_scan", "android": "https://dc.lft.to/lastmile_qr_scan"}, "lat": 38.909623, "is_disabled": 0, "lon": -77.0406875, "name": "f8b75e210c73ec49128ae103c4f5d429", "type": "electric_scooter", "bike_id": "f8b75e210c73ec49128ae103c4f5d429", "is_reserved": 0}, {"rental_uris": {"ios": "https://dc.lft.to/lastmile_qr_scan", "android": "https://dc.lft.to/lastmile_qr_scan"}, "lat": 38.97552066666667, "is_disabled": 0, "lon": -76.9955895, "name": "f94e8f249572438154ae2f8de3c6231e", "type": "electric_scooter", "bike_id": "f94e8f249572438154ae2f8de3c6231e", "is_reserved": 0}, {"rental_uris": {"ios": "https://dc.lft.to/lastmile_qr_scan", "android": "https://dc.lft.to/lastmile_qr_scan"}, "lat": 38.917081333333336, "is_disabled": 0, "lon": -77.02633733333333, "name": "0af7ffe5fede86e142b9578ad1518a2a", "type": "electric_scooter", "bike_id": "0af7ffe5fede86e142b9578ad1518a2a", "is_reserved": 0}, {"rental_uris": {"ios": "https://dc.lft.to/lastmile_qr_scan", "android": "https://dc.lft.to/lastmile_qr_scan"}, "lat": 38.90954466666667, "is_disabled": 0, "lon": -77.03816566666667, "name": "5a67a0bca020c8495cf74b906559f2bb", "type": "electric_scooter", "bike_id": "5a67a0bca020c8495cf74b906559f2bb", "is_reserved": 0}, {"rental_uris": {"ios": "https://dc.lft.to/lastmile_qr_scan", "android": "https://dc.lft.to/lastmile_qr_scan"}, "lat": 38.91166316666666, "is_disabled": 0, "lon": -77.02301033333333, "name": "017c4c805860057528dc20e3d28655d9", "type": "electric_scooter", "bike_id": "017c4c805860057528dc20e3d28655d9", "is_reserved": 0}, {"rental_uris": {"ios": "https://dc.lft.to/lastmile_qr_scan", "android": "https://dc.lft.to/lastmile_qr_scan"}, "lat": 38.90009, "is_disabled": 0, "lon": -77.01174433333334, "name": "8d0b084d9482101ad5930766aa5bd95a", "type": "electric_scooter", "bike_id": "8d0b084d9482101ad5930766aa5bd95a", "is_reserved": 0}, {"rental_uris": {"ios": "https://dc.lft.to/lastmile_qr_scan", "android": "https://dc.lft.to/lastmile_qr_scan"}, "lat": 38.91695633333333, "is_disabled": 0, "lon": -77.01182666666666, "name": "9c335c00d42c772518e2a1fce345339c", "type": "electric_scooter", "bike_id": "9c335c00d42c772518e2a1fce345339c", "is_reserved": 0}, {"rental_uris": {"ios": "https://dc.lft.to/lastmile_qr_scan", "android": "https://dc.lft.to/lastmile_qr_scan"}, "lat": 38.904084833333336, "is_disabled": 0, "lon": -77.02066433333333, "name": "bfa9b138451b785e79d9c0a0e813fbf0", "type": "electric_scooter", "bike_id": "bfa9b138451b785e79d9c0a0e813fbf0", "is_reserved": 0}, {"rental_uris": {"ios": "https://dc.lft.to/lastmile_qr_scan", "android": "https://dc.lft.to/lastmile_qr_scan"}, "lat": 38.919337166666665, "is_disabled": 0, "lon": -77.0249175, "name": "da591cf513dbbe76b2b0fa56a9934c02", "type": "electric_scooter", "bike_id": "da591cf513dbbe76b2b0fa56a9934c02", "is_reserved": 0}, {"rental_uris": {"ios": "https://dc.lft.to/lastmile_qr_scan", "android": "https://dc.lft.to/lastmile_qr_scan"}, "lat": 39.02237933333333, "is_disabled": 0, "lon": -76.999622, "name": "c5a50158f4c1ce9a8da424de89dd0745", "type": "electric_bike", "bike_id": "c5a50158f4c1ce9a8da424de89dd0745", "is_reserved": 0}, {"rental_uris": {"ios": "https://dc.lft.to/lastmile_qr_scan", "android": "https://dc.lft.to/lastmile_qr_scan"}, "lat": 38.868718666666666, "is_disabled": 0, "lon": -76.99016166666667, "name": "548bae21b788502a2cb8644b455b45e2", "type": "electric_scooter", "bike_id": "548bae21b788502a2cb8644b455b45e2", "is_reserved": 0}, {"rental_uris": {"ios": "https://dc.lft.to/lastmile_qr_scan", "android": "https://dc.lft.to/lastmile_qr_scan"}, "lat": 38.9380525, "is_disabled": 0, "lon": -77.08757983333334, "name": "2f9ff53738b0d437bae7b64abc92683e", "type": "electric_bike", "bike_id": "2f9ff53738b0d437bae7b64abc92683e", "is_reserved": 0}, {"rental_uris": {"ios": "https://dc.lft.to/lastmile_qr_scan", "android": "https://dc.lft.to/lastmile_qr_scan"}, "lat": 38.952563166666664, "is_disabled": 0, "lon": -77.0207575, "name": "ab91461f12ae65c3ad659459e0fb1b9b", "type": "electric_scooter", "bike_id": "ab91461f12ae65c3ad659459e0fb1b9b", "is_reserved": 0}, {"rental_uris": {"ios": "https://dc.lft.to/lastmile_qr_scan", "android": "https://dc.lft.to/lastmile_qr_scan"}, "lat": 38.8922165, "is_disabled": 0, "lon": -77.03342766666667, "name": "fcbd038a012786e25237c4cd0fb124a8", "type": "electric_scooter", "bike_id": "fcbd038a012786e25237c4cd0fb124a8", "is_reserved": 0}, {"rental_uris": {"ios": "https://dc.lft.to/lastmile_qr_scan", "android": "https://dc.lft.to/lastmile_qr_scan"}, "lat": 38.9276875, "is_disabled": 0, "lon": -77.029945, "name": "cd6c404fa842ea62b33dbbb8cdb1aac2", "type": "electric_scooter", "bike_id": "cd6c404fa842ea62b33dbbb8cdb1aac2", "is_reserved": 0}, {"rental_uris": {"ios": "https://dc.lft.to/lastmile_qr_scan", "android": "https://dc.lft.to/lastmile_qr_scan"}, "lat": 38.91411433333333, "is_disabled": 0, "lon": -77.0133945, "name": "de47a1af647ae2e523932c39f5cc2baf", "type": "electric_scooter", "bike_id": "de47a1af647ae2e523932c39f5cc2baf", "is_reserved": 0}, {"rental_uris": {"ios": "https://dc.lft.to/lastmile_qr_scan", "android": "https://dc.lft.to/lastmile_qr_scan"}, "lat": 38.937014833333336, "is_disabled": 0, "lon": -77.02716933333333, "name": "87fbeddaa9962f6e739011acde3fe4a5", "type": "electric_bike", "bike_id": "87fbeddaa9962f6e739011acde3fe4a5", "is_reserved": 0}, {"rental_uris": {"ios": "https://dc.lft.to/lastmile_qr_scan", "android": "https://dc.lft.to/lastmile_qr_scan"}, "lat": 38.945251166666665, "is_disabled": 0, "lon": -77.06404416666666, "name": "5d675ecfa2b03bc7755566e943352420", "type": "electric_scooter", "bike_id": "5d675ecfa2b03bc7755566e943352420", "is_reserved": 0}, {"rental_uris": {"ios": "https://dc.lft.to/lastmile_qr_scan", "android": "https://dc.lft.to/lastmile_qr_scan"}, "lat": 38.9057355, "is_disabled": 0, "lon": -77.03930616666666, "name": "4b58fbe26d6dee5875037e65d28e6543", "type": "electric_scooter", "bike_id": "4b58fbe26d6dee5875037e65d28e6543", "is_reserved": 0}, {"rental_uris": {"ios": "https://dc.lft.to/lastmile_qr_scan", "android": "https://dc.lft.to/lastmile_qr_scan"}, "lat": 38.900156333333335, "is_disabled": 0, "lon": -76.98870416666666, "name": "21ed500b7d24274ff7587a672002c233", "type": "electric_scooter", "bike_id": "21ed500b7d24274ff7587a672002c233", "is_reserved": 0}, {"rental_uris": {"ios": "https://dc.lft.to/lastmile_qr_scan", "android": "https://dc.lft.to/lastmile_qr_scan"}, "lat": 38.886188, "is_disabled": 0, "lon": -76.996127, "name": "4b52737773270a25043880543d780959", "type": "electric_scooter", "bike_id": "4b52737773270a25043880543d780959", "is_reserved": 0}, {"rental_uris": {"ios": "https://dc.lft.to/lastmile_qr_scan", "android": "https://dc.lft.to/lastmile_qr_scan"}, "lat": 38.90915116666667, "is_disabled": 0, "lon": -77.04163433333333, "name": "db24141e66bb02a9c7ac86b5f4cd9931", "type": "electric_scooter", "bike_id": "db24141e66bb02a9c7ac86b5f4cd9931", "is_reserved": 0}, {"rental_uris": {"ios": "https://dc.lft.to/lastmile_qr_scan", "android": "https://dc.lft.to/lastmile_qr_scan"}, "lat": 38.894882333333335, "is_disabled": 0, "lon": -76.97396616666667, "name": "07c27d2280c8439e56168012e23ef924", "type": "electric_scooter", "bike_id": "07c27d2280c8439e56168012e23ef924", "is_reserved": 0}, {"rental_uris": {"ios": "https://dc.lft.to/lastmile_qr_scan", "android": "https://dc.lft.to/lastmile_qr_scan"}, "lat": 38.915450166666666, "is_disabled": 0, "lon": -77.02207916666667, "name": "1af9dad7168f7c0936673c063464b704", "type": "electric_scooter", "bike_id": "1af9dad7168f7c0936673c063464b704", "is_reserved": 0}, {"rental_uris": {"ios": "https://dc.lft.to/lastmile_qr_scan", "android": "https://dc.lft.to/lastmile_qr_scan"}, "lat": 38.903680333333334, "is_disabled": 0, "lon": -77.04253383333334, "name": "3c386646f65389d73f5a2f6e363fd005", "type": "electric_scooter", "bike_id": "3c386646f65389d73f5a2f6e363fd005", "is_reserved": 0}, {"rental_uris": {"ios": "https://dc.lft.to/lastmile_qr_scan", "android": "https://dc.lft.to/lastmile_qr_scan"}, "lat": 38.995704833333335, "is_disabled": 0, "lon": -77.02438833333333, "name": "a0ca15f7879717b833f1963d4fd5bafe", "type": "electric_scooter", "bike_id": "a0ca15f7879717b833f1963d4fd5bafe", "is_reserved": 0}, {"rental_uris": {"ios": "https://dc.lft.to/lastmile_qr_scan", "android": "https://dc.lft.to/lastmile_qr_scan"}, "lat": 38.9097435, "is_disabled": 0, "lon": -77.03278833333333, "name": "541c6aa92c74791fc33bb7d43e42ea68", "type": "electric_scooter", "bike_id": "541c6aa92c74791fc33bb7d43e42ea68", "is_reserved": 0}, {"rental_uris": {"ios": "https://dc.lft.to/lastmile_qr_scan", "android": "https://dc.lft.to/lastmile_qr_scan"}, "lat": 38.881192666666664, "is_disabled": 0, "lon": -76.99514983333333, "name": "01703aeaea78289712896be3912870e0", "type": "electric_scooter", "bike_id": "01703aeaea78289712896be3912870e0", "is_reserved": 0}, {"rental_uris": {"ios": "https://dc.lft.to/lastmile_qr_scan", "android": "https://dc.lft.to/lastmile_qr_scan"}, "lat": 39.09000416666667, "is_disabled": 0, "lon": -76.93833716666667, "name": "b19a1018c38c0ffeaf94184c5c6f662d", "type": "electric_bike", "bike_id": "b19a1018c38c0ffeaf94184c5c6f662d", "is_reserved": 0}, {"rental_uris": {"ios": "https://dc.lft.to/lastmile_qr_scan", "android": "https://dc.lft.to/lastmile_qr_scan"}, "lat": 38.92093883333333, "is_disabled": 0, "lon": -77.0269575, "name": "a5309ba275813449688a7f607bdb572b", "type": "electric_bike", "bike_id": "a5309ba275813449688a7f607bdb572b", "is_reserved": 0}, {"rental_uris": {"ios": "https://dc.lft.to/lastmile_qr_scan", "android": "https://dc.lft.to/lastmile_qr_scan"}, "lat": 38.916897166666665, "is_disabled": 0, "lon": -77.02601333333334, "name": "b5cd49ecbe748c3a116dd743601af6a4", "type": "electric_scooter", "bike_id": "b5cd49ecbe748c3a116dd743601af6a4", "is_reserved": 0}, {"rental_uris": {"ios": "https://dc.lft.to/lastmile_qr_scan", "android": "https://dc.lft.to/lastmile_qr_scan"}, "lat": 39.0151395, "is_disabled": 0, "lon": -77.0377005, "name": "ebfede4979e6be2ac2c8debf6134fcaa", "type": "electric_scooter", "bike_id": "ebfede4979e6be2ac2c8debf6134fcaa", "is_reserved": 0}, {"rental_uris": {"ios": "https://dc.lft.to/lastmile_qr_scan", "android": "https://dc.lft.to/lastmile_qr_scan"}, "lat": 38.91280866666666, "is_disabled": 0, "lon": -76.98588733333334, "name": "aa6cc67d7e516e6ae2fdbf14c1d014fc", "type": "electric_scooter", "bike_id": "aa6cc67d7e516e6ae2fdbf14c1d014fc", "is_reserved": 0}, {"rental_uris": {"ios": "https://dc.lft.to/lastmile_qr_scan", "android": "https://dc.lft.to/lastmile_qr_scan"}, "lat": 38.907425833333335, "is_disabled": 0, "lon": -77.04854833333333, "name": "101eb1c6aa4caa0e95ea877dea156de2", "type": "electric_scooter", "bike_id": "101eb1c6aa4caa0e95ea877dea156de2", "is_reserved": 0}, {"rental_uris": {"ios": "https://dc.lft.to/lastmile_qr_scan", "android": "https://dc.lft.to/lastmile_qr_scan"}, "lat": 38.95980183333333, "is_disabled": 0, "lon": -77.00965933333333, "name": "c876bb4c1dcb598c53e8a74635b11956", "type": "electric_scooter", "bike_id": "c876bb4c1dcb598c53e8a74635b11956", "is_reserved": 0}, {"rental_uris": {"ios": "https://dc.lft.to/lastmile_qr_scan", "android": "https://dc.lft.to/lastmile_qr_scan"}, "lat": 38.918691333333335, "is_disabled": 0, "lon": -77.04070716666666, "name": "07965e6df565b520a173625668fedad4", "type": "electric_scooter", "bike_id": "07965e6df565b520a173625668fedad4", "is_reserved": 0}, {"rental_uris": {"ios": "https://dc.lft.to/lastmile_qr_scan", "android": "https://dc.lft.to/lastmile_qr_scan"}, "lat": 38.958011, "is_disabled": 0, "lon": -77.0258905, "name": "f45d99159e80af0e4fcd6c1545c78d91", "type": "electric_bike", "bike_id": "f45d99159e80af0e4fcd6c1545c78d91", "is_reserved": 0}, {"rental_uris": {"ios": "https://dc.lft.to/lastmile_qr_scan", "android": "https://dc.lft.to/lastmile_qr_scan"}, "lat": 38.896202, "is_disabled": 0, "lon": -77.02843083333333, "name": "ed235fd95820a52afb6aaeb062f9316c", "type": "electric_scooter", "bike_id": "ed235fd95820a52afb6aaeb062f9316c", "is_reserved": 0}, {"rental_uris": {"ios": "https://dc.lft.to/lastmile_qr_scan", "android": "https://dc.lft.to/lastmile_qr_scan"}, "lat": 38.8971955, "is_disabled": 0, "lon": -77.029799, "name": "75c8386aef6fff3aecc498197f74f7a5", "type": "electric_scooter", "bike_id": "75c8386aef6fff3aecc498197f74f7a5", "is_reserved": 0}, {"rental_uris": {"ios": "https://dc.lft.to/lastmile_qr_scan", "android": "https://dc.lft.to/lastmile_qr_scan"}, "lat": 38.962056, "is_disabled": 0, "lon": -76.93548116666666, "name": "9f0dbba494a1992ee69b21d754f930a4", "type": "electric_bike", "bike_id": "9f0dbba494a1992ee69b21d754f930a4", "is_reserved": 0}, {"rental_uris": {"ios": "https://dc.lft.to/lastmile_qr_scan", "android": "https://dc.lft.to/lastmile_qr_scan"}, "lat": 38.90611916666667, "is_disabled": 0, "lon": -76.9513815, "name": "53c1fee982589d04daa987606b9c0d96", "type": "electric_bike", "bike_id": "53c1fee982589d04daa987606b9c0d96", "is_reserved": 0}, {"rental_uris": {"ios": "https://dc.lft.to/lastmile_qr_scan", "android": "https://dc.lft.to/lastmile_qr_scan"}, "lat": 38.915533333333336, "is_disabled": 0, "lon": -77.03585483333333, "name": "cc0031960fe48d2cfbc1e193a3b119bd", "type": "electric_scooter", "bike_id": "cc0031960fe48d2cfbc1e193a3b119bd", "is_reserved": 0}, {"rental_uris": {"ios": "https://dc.lft.to/lastmile_qr_scan", "android": "https://dc.lft.to/lastmile_qr_scan"}, "lat": 39.05973216666667, "is_disabled": 0, "lon": -76.9718555, "name": "48b85771d778539323afd0ded4e8805e", "type": "electric_bike", "bike_id": "48b85771d778539323afd0ded4e8805e", "is_reserved": 0}, {"rental_uris": {"ios": "https://dc.lft.to/lastmile_qr_scan", "android": "https://dc.lft.to/lastmile_qr_scan"}, "lat": 38.894829, "is_disabled": 0, "lon": -76.997369, "name": "12ee05def0739f5f41b26af4a5ddacac", "type": "electric_scooter", "bike_id": "12ee05def0739f5f41b26af4a5ddacac", "is_reserved": 0}, {"rental_uris": {"ios": "https://dc.lft.to/lastmile_qr_scan", "android": "https://dc.lft.to/lastmile_qr_scan"}, "lat": 38.89199966666666, "is_disabled": 0, "lon": -76.92569666666667, "name": "62b7fb38c9c3eaea32deaba6dd2a0e9f", "type": "electric_bike", "bike_id": "62b7fb38c9c3eaea32deaba6dd2a0e9f", "is_reserved": 0}, {"rental_uris": {"ios": "https://dc.lft.to/lastmile_qr_scan", "android": "https://dc.lft.to/lastmile_qr_scan"}, "lat": 38.901128666666665, "is_disabled": 0, "lon": -77.0295, "name": "8949c751faecc7af762520249926e4c8", "type": "electric_scooter", "bike_id": "8949c751faecc7af762520249926e4c8", "is_reserved": 0}, {"rental_uris": {"ios": "https://dc.lft.to/lastmile_qr_scan", "android": "https://dc.lft.to/lastmile_qr_scan"}, "lat": 38.99672866666667, "is_disabled": 0, "lon": -77.0427485, "name": "756e5bf18983189ff4e2b859e02fa2a8", "type": "electric_scooter", "bike_id": "756e5bf18983189ff4e2b859e02fa2a8", "is_reserved": 0}, {"rental_uris": {"ios": "https://dc.lft.to/lastmile_qr_scan", "android": "https://dc.lft.to/lastmile_qr_scan"}, "lat": 38.89467233333333, "is_disabled": 0, "lon": -77.02801466666666, "name": "966cc087206871a7be80d979f0850f55", "type": "electric_scooter", "bike_id": "966cc087206871a7be80d979f0850f55", "is_reserved": 0}, {"rental_uris": {"ios": "https://dc.lft.to/lastmile_qr_scan", "android": "https://dc.lft.to/lastmile_qr_scan"}, "lat": 38.892033, "is_disabled": 0, "lon": -77.00116183333333, "name": "9c6d21f60f1ea3e87fa6f0cb55ece200", "type": "electric_scooter", "bike_id": "9c6d21f60f1ea3e87fa6f0cb55ece200", "is_reserved": 0}, {"rental_uris": {"ios": "https://dc.lft.to/lastmile_qr_scan", "android": "https://dc.lft.to/lastmile_qr_scan"}, "lat": 38.889987, "is_disabled": 0, "lon": -76.9252385, "name": "e720cb892a3da0371d370b61c758a7f6", "type": "electric_bike", "bike_id": "e720cb892a3da0371d370b61c758a7f6", "is_reserved": 0}, {"rental_uris": {"ios": "https://dc.lft.to/lastmile_qr_scan", "android": "https://dc.lft.to/lastmile_qr_scan"}, "lat": 38.917956833333335, "is_disabled": 0, "lon": -77.03440583333334, "name": "0caf1e623e94d90731552ffb1272053b", "type": "electric_scooter", "bike_id": "0caf1e623e94d90731552ffb1272053b", "is_reserved": 0}, {"rental_uris": {"ios": "https://dc.lft.to/lastmile_qr_scan", "android": "https://dc.lft.to/lastmile_qr_scan"}, "lat": 38.91845466666667, "is_disabled": 0, "lon": -76.9580805, "name": "3bea24070c9ecbb480e7dc914507ab0b", "type": "electric_bike", "bike_id": "3bea24070c9ecbb480e7dc914507ab0b", "is_reserved": 0}, {"rental_uris": {"ios": "https://dc.lft.to/lastmile_qr_scan", "android": "https://dc.lft.to/lastmile_qr_scan"}, "lat": 38.92811566666666, "is_disabled": 0, "lon": -76.980222, "name": "499e16ae555609d83b9881763b86a8f3", "type": "electric_bike", "bike_id": "499e16ae555609d83b9881763b86a8f3", "is_reserved": 0}, {"rental_uris": {"ios": "https://dc.lft.to/lastmile_qr_scan", "android": "https://dc.lft.to/lastmile_qr_scan"}, "lat": 38.904620666666666, "is_disabled": 0, "lon": -77.01434233333333, "name": "0014c74a989036a6212322ed290cbf90", "type": "electric_scooter", "bike_id": "0014c74a989036a6212322ed290cbf90", "is_reserved": 0}, {"rental_uris": {"ios": "https://dc.lft.to/lastmile_qr_scan", "android": "https://dc.lft.to/lastmile_qr_scan"}, "lat": 38.86549566666667, "is_disabled": 0, "lon": -76.98807033333334, "name": "37979b816a41b07dc1da2af6fc6a6d67", "type": "electric_scooter", "bike_id": "37979b816a41b07dc1da2af6fc6a6d67", "is_reserved": 0}, {"rental_uris": {"ios": "https://dc.lft.to/lastmile_qr_scan", "android": "https://dc.lft.to/lastmile_qr_scan"}, "lat": 38.89723033333333, "is_disabled": 0, "lon": -77.02979216666667, "name": "e666222b14df2d3fdbb38418981f08d0", "type": "electric_scooter", "bike_id": "e666222b14df2d3fdbb38418981f08d0", "is_reserved": 0}, {"rental_uris": {"ios": "https://dc.lft.to/lastmile_qr_scan", "android": "https://dc.lft.to/lastmile_qr_scan"}, "lat": 38.908923333333334, "is_disabled": 0, "lon": -77.02121733333334, "name": "1eefad4d79905c8384d0264876cc2780", "type": "electric_scooter", "bike_id": "1eefad4d79905c8384d0264876cc2780", "is_reserved": 0}, {"rental_uris": {"ios": "https://dc.lft.to/lastmile_qr_scan", "android": "https://dc.lft.to/lastmile_qr_scan"}, "lat": 38.88937116666666, "is_disabled": 0, "lon": -77.16227533333333, "name": "f739927e555e1c0f0e5f55e473ba5191", "type": "electric_bike", "bike_id": "f739927e555e1c0f0e5f55e473ba5191", "is_reserved": 0}, {"rental_uris": {"ios": "https://dc.lft.to/lastmile_qr_scan", "android": "https://dc.lft.to/lastmile_qr_scan"}, "lat": 38.93406816666667, "is_disabled": 0, "lon": -77.044235, "name": "1a49b6710ce7c31bef2ee38811f67739", "type": "electric_scooter", "bike_id": "1a49b6710ce7c31bef2ee38811f67739", "is_reserved": 0}, {"rental_uris": {"ios": "https://dc.lft.to/lastmile_qr_scan", "android": "https://dc.lft.to/lastmile_qr_scan"}, "lat": 38.89235, "is_disabled": 0, "lon": -77.04650066666666, "name": "1f07dc3fc8294f4d7118b49951a98fad", "type": "electric_scooter", "bike_id": "1f07dc3fc8294f4d7118b49951a98fad", "is_reserved": 0}, {"rental_uris": {"ios": "https://dc.lft.to/lastmile_qr_scan", "android": "https://dc.lft.to/lastmile_qr_scan"}, "lat": 38.9210615, "is_disabled": 0, "lon": -76.99431666666666, "name": "2708191cf42e565e69c58e7a9c94aee9", "type": "electric_scooter", "bike_id": "2708191cf42e565e69c58e7a9c94aee9", "is_reserved": 0}, {"rental_uris": {"ios": "https://dc.lft.to/lastmile_qr_scan", "android": "https://dc.lft.to/lastmile_qr_scan"}, "lat": 38.9254255, "is_disabled": 0, "lon": -77.03445416666666, "name": "b718156daa795cd43bc3231880d779ac", "type": "electric_scooter", "bike_id": "b718156daa795cd43bc3231880d779ac", "is_reserved": 0}, {"rental_uris": {"ios": "https://dc.lft.to/lastmile_qr_scan", "android": "https://dc.lft.to/lastmile_qr_scan"}, "lat": 38.897687833333336, "is_disabled": 0, "lon": -77.0198555, "name": "d9a4c38fbea6a4b4f7f49225e89b8e9c", "type": "electric_scooter", "bike_id": "d9a4c38fbea6a4b4f7f49225e89b8e9c", "is_reserved": 0}, {"rental_uris": {"ios": "https://dc.lft.to/lastmile_qr_scan", "android": "https://dc.lft.to/lastmile_qr_scan"}, "lat": 38.9064815, "is_disabled": 0, "lon": -76.98320066666666, "name": "47608957e4cfdb17629b02ef40972209", "type": "electric_scooter", "bike_id": "47608957e4cfdb17629b02ef40972209", "is_reserved": 0}, {"rental_uris": {"ios": "https://dc.lft.to/lastmile_qr_scan", "android": "https://dc.lft.to/lastmile_qr_scan"}, "lat": 38.91336416666667, "is_disabled": 0, "lon": -77.04583816666667, "name": "1a232b079ba4ac7af763a42cff811822", "type": "electric_scooter", "bike_id": "1a232b079ba4ac7af763a42cff811822", "is_reserved": 0}, {"rental_uris": {"ios": "https://dc.lft.to/lastmile_qr_scan", "android": "https://dc.lft.to/lastmile_qr_scan"}, "lat": 38.92767116666667, "is_disabled": 0, "lon": -76.95466683333333, "name": "7d3ba4d0cafa4595659092a5b4063457", "type": "electric_bike", "bike_id": "7d3ba4d0cafa4595659092a5b4063457", "is_reserved": 0}, {"rental_uris": {"ios": "https://dc.lft.to/lastmile_qr_scan", "android": "https://dc.lft.to/lastmile_qr_scan"}, "lat": 38.89674983333333, "is_disabled": 0, "lon": -76.98223983333334, "name": "9583333748b4be2feb3a5d4abdb48cde", "type": "electric_scooter", "bike_id": "9583333748b4be2feb3a5d4abdb48cde", "is_reserved": 0}, {"rental_uris": {"ios": "https://dc.lft.to/lastmile_qr_scan", "android": "https://dc.lft.to/lastmile_qr_scan"}, "lat": 38.93357566666667, "is_disabled": 0, "lon": -77.08213466666666, "name": "61145654596188bdda8bf98ddaf3d89f", "type": "electric_bike", "bike_id": "61145654596188bdda8bf98ddaf3d89f", "is_reserved": 0}, {"rental_uris": {"ios": "https://dc.lft.to/lastmile_qr_scan", "android": "https://dc.lft.to/lastmile_qr_scan"}, "lat": 38.9020485, "is_disabled": 0, "lon": -76.97414766666667, "name": "e8f019bd5cbfc22220eeb89b038c12b1", "type": "electric_bike", "bike_id": "e8f019bd5cbfc22220eeb89b038c12b1", "is_reserved": 0}, {"rental_uris": {"ios": "https://dc.lft.to/lastmile_qr_scan", "android": "https://dc.lft.to/lastmile_qr_scan"}, "lat": 38.914474166666665, "is_disabled": 0, "lon": -77.022878, "name": "bca587e158171dbb0f0734055a7664fb", "type": "electric_scooter", "bike_id": "bca587e158171dbb0f0734055a7664fb", "is_reserved": 0}, {"rental_uris": {"ios": "https://dc.lft.to/lastmile_qr_scan", "android": "https://dc.lft.to/lastmile_qr_scan"}, "lat": 38.892354833333336, "is_disabled": 0, "lon": -77.04651316666667, "name": "49051ed7263ef239123ef18714b29c95", "type": "electric_scooter", "bike_id": "49051ed7263ef239123ef18714b29c95", "is_reserved": 0}, {"rental_uris": {"ios": "https://dc.lft.to/lastmile_qr_scan", "android": "https://dc.lft.to/lastmile_qr_scan"}, "lat": 39.000959, "is_disabled": 0, "lon": -77.0090685, "name": "895d772e2cb08c7c3f00767f215c83a1", "type": "electric_scooter", "bike_id": "895d772e2cb08c7c3f00767f215c83a1", "is_reserved": 0}, {"rental_uris": {"ios": "https://dc.lft.to/lastmile_qr_scan", "android": "https://dc.lft.to/lastmile_qr_scan"}, "lat": 38.900458, "is_disabled": 0, "lon": -77.03433933333334, "name": "6e6e46c418b182576b77d8e85c135261", "type": "electric_bike", "bike_id": "6e6e46c418b182576b77d8e85c135261", "is_reserved": 0}, {"rental_uris": {"ios": "https://dc.lft.to/lastmile_qr_scan", "android": "https://dc.lft.to/lastmile_qr_scan"}, "lat": 38.89465333333333, "is_disabled": 0, "lon": -77.028039, "name": "7940b8464c7794d7058a98d2e0624ca8", "type": "electric_scooter", "bike_id": "7940b8464c7794d7058a98d2e0624ca8", "is_reserved": 0}, {"rental_uris": {"ios": "https://dc.lft.to/lastmile_qr_scan", "android": "https://dc.lft.to/lastmile_qr_scan"}, "lat": 38.927653166666666, "is_disabled": 0, "lon": -77.03102583333333, "name": "0f9a527096ebe3469e3a66d8e3031824", "type": "electric_scooter", "bike_id": "0f9a527096ebe3469e3a66d8e3031824", "is_reserved": 0}, {"rental_uris": {"ios": "https://dc.lft.to/lastmile_qr_scan", "android": "https://dc.lft.to/lastmile_qr_scan"}, "lat": 38.901485, "is_disabled": 0, "lon": -77.0477955, "name": "1ee1ac8b2dde082e0b2687b2c718eb22", "type": "electric_scooter", "bike_id": "1ee1ac8b2dde082e0b2687b2c718eb22", "is_reserved": 0}, {"rental_uris": {"ios": "https://dc.lft.to/lastmile_qr_scan", "android": "https://dc.lft.to/lastmile_qr_scan"}, "lat": 38.86461516666667, "is_disabled": 0, "lon": -76.9834955, "name": "641dde3ca22dbbb1ad8e8a0fbb633a89", "type": "electric_bike", "bike_id": "641dde3ca22dbbb1ad8e8a0fbb633a89", "is_reserved": 0}, {"rental_uris": {"ios": "https://dc.lft.to/lastmile_qr_scan", "android": "https://dc.lft.to/lastmile_qr_scan"}, "lat": 38.90368383333333, "is_disabled": 0, "lon": -76.97504533333333, "name": "e054342bbd5b2e1a0e1aa64a972c9e21", "type": "electric_bike", "bike_id": "e054342bbd5b2e1a0e1aa64a972c9e21", "is_reserved": 0}, {"rental_uris": {"ios": "https://dc.lft.to/lastmile_qr_scan", "android": "https://dc.lft.to/lastmile_qr_scan"}, "lat": 38.91705066666667, "is_disabled": 0, "lon": -77.01265066666667, "name": "cf0354e7f41832f3ed475fa2cbccfe60", "type": "electric_scooter", "bike_id": "cf0354e7f41832f3ed475fa2cbccfe60", "is_reserved": 0}, {"rental_uris": {"ios": "https://dc.lft.to/lastmile_qr_scan", "android": "https://dc.lft.to/lastmile_qr_scan"}, "lat": 38.90016766666667, "is_disabled": 0, "lon": -77.04142483333334, "name": "f4b62ca6192d2aa368828439ca54166c", "type": "electric_scooter", "bike_id": "f4b62ca6192d2aa368828439ca54166c", "is_reserved": 0}, {"rental_uris": {"ios": "https://dc.lft.to/lastmile_qr_scan", "android": "https://dc.lft.to/lastmile_qr_scan"}, "lat": 38.892417333333334, "is_disabled": 0, "lon": -76.99267583333334, "name": "4dce78653f6d4ba9218611cc9b75e3f5", "type": "electric_bike", "bike_id": "4dce78653f6d4ba9218611cc9b75e3f5", "is_reserved": 0}, {"rental_uris": {"ios": "https://dc.lft.to/lastmile_qr_scan", "android": "https://dc.lft.to/lastmile_qr_scan"}, "lat": 38.900632, "is_disabled": 0, "lon": -77.04873283333333, "name": "fbb92b4cc4db66abe4502174d877999d", "type": "electric_scooter", "bike_id": "fbb92b4cc4db66abe4502174d877999d", "is_reserved": 0}, {"rental_uris": {"ios": "https://dc.lft.to/lastmile_qr_scan", "android": "https://dc.lft.to/lastmile_qr_scan"}, "lat": 38.8995735, "is_disabled": 0, "lon": -77.033805, "name": "cc7c29014838dcfce3011564f5e4b8d8", "type": "electric_scooter", "bike_id": "cc7c29014838dcfce3011564f5e4b8d8", "is_reserved": 0}, {"rental_uris": {"ios": "https://dc.lft.to/lastmile_qr_scan", "android": "https://dc.lft.to/lastmile_qr_scan"}, "lat": 38.911984833333335, "is_disabled": 0, "lon": -77.02098933333333, "name": "47f7f91726f051b797d10a9342d772c1", "type": "electric_scooter", "bike_id": "47f7f91726f051b797d10a9342d772c1", "is_reserved": 0}, {"rental_uris": {"ios": "https://dc.lft.to/lastmile_qr_scan", "android": "https://dc.lft.to/lastmile_qr_scan"}, "lat": 38.92280433333333, "is_disabled": 0, "lon": -77.03215233333333, "name": "22bbf622a1b484e2666952ef59b6262c", "type": "electric_scooter", "bike_id": "22bbf622a1b484e2666952ef59b6262c", "is_reserved": 0}, {"rental_uris": {"ios": "https://dc.lft.to/lastmile_qr_scan", "android": "https://dc.lft.to/lastmile_qr_scan"}, "lat": 38.8869915, "is_disabled": 0, "lon": -76.99607883333333, "name": "626eda24b043ff51108444ae056d84e9", "type": "electric_scooter", "bike_id": "626eda24b043ff51108444ae056d84e9", "is_reserved": 0}, {"rental_uris": {"ios": "https://dc.lft.to/lastmile_qr_scan", "android": "https://dc.lft.to/lastmile_qr_scan"}, "lat": 38.9292655, "is_disabled": 0, "lon": -77.0328755, "name": "524b5630b9f145c8cdcc45c676e38269", "type": "electric_scooter", "bike_id": "524b5630b9f145c8cdcc45c676e38269", "is_reserved": 0}, {"rental_uris": {"ios": "https://dc.lft.to/lastmile_qr_scan", "android": "https://dc.lft.to/lastmile_qr_scan"}, "lat": 38.917371833333334, "is_disabled": 0, "lon": -77.0191215, "name": "4992ac42190be5da6cfe5783097ae7b0", "type": "electric_bike", "bike_id": "4992ac42190be5da6cfe5783097ae7b0", "is_reserved": 0}, {"rental_uris": {"ios": "https://dc.lft.to/lastmile_qr_scan", "android": "https://dc.lft.to/lastmile_qr_scan"}, "lat": 38.9051885, "is_disabled": 0, "lon": -77.06455383333333, "name": "e68e5f05f74b854268dd7639d703decf", "type": "electric_bike", "bike_id": "e68e5f05f74b854268dd7639d703decf", "is_reserved": 0}, {"rental_uris": {"ios": "https://dc.lft.to/lastmile_qr_scan", "android": "https://dc.lft.to/lastmile_qr_scan"}, "lat": 38.88524616666667, "is_disabled": 0, "lon": -76.9848555, "name": "63db262ebde491ab178456080ef3a7cc", "type": "electric_scooter", "bike_id": "63db262ebde491ab178456080ef3a7cc", "is_reserved": 0}, {"rental_uris": {"ios": "https://dc.lft.to/lastmile_qr_scan", "android": "https://dc.lft.to/lastmile_qr_scan"}, "lat": 38.8832685, "is_disabled": 0, "lon": -77.01560566666667, "name": "105fb7b420c46d93e344ea097afd4f54", "type": "electric_scooter", "bike_id": "105fb7b420c46d93e344ea097afd4f54", "is_reserved": 0}, {"rental_uris": {"ios": "https://dc.lft.to/lastmile_qr_scan", "android": "https://dc.lft.to/lastmile_qr_scan"}, "lat": 38.89533683333333, "is_disabled": 0, "lon": -77.03986466666667, "name": "a445fba9582c17be84b68e3d19b85717", "type": "electric_scooter", "bike_id": "a445fba9582c17be84b68e3d19b85717", "is_reserved": 0}, {"rental_uris": {"ios": "https://dc.lft.to/lastmile_qr_scan", "android": "https://dc.lft.to/lastmile_qr_scan"}, "lat": 38.913110833333334, "is_disabled": 0, "lon": -77.0083685, "name": "b4517c950d0b6f5bf2c1e99b57ade336", "type": "electric_scooter", "bike_id": "b4517c950d0b6f5bf2c1e99b57ade336", "is_reserved": 0}, {"rental_uris": {"ios": "https://dc.lft.to/lastmile_qr_scan", "android": "https://dc.lft.to/lastmile_qr_scan"}, "lat": 38.8956985, "is_disabled": 0, "lon": -76.9275805, "name": "48430eab8a4511c675ecc4918ed6ab61", "type": "electric_bike", "bike_id": "48430eab8a4511c675ecc4918ed6ab61", "is_reserved": 0}, {"rental_uris": {"ios": "https://dc.lft.to/lastmile_qr_scan", "android": "https://dc.lft.to/lastmile_qr_scan"}, "lat": 38.913591833333335, "is_disabled": 0, "lon": -77.01551483333333, "name": "89395f492658d69bca82fa7f14c8246d", "type": "electric_scooter", "bike_id": "89395f492658d69bca82fa7f14c8246d", "is_reserved": 0}, {"rental_uris": {"ios": "https://dc.lft.to/lastmile_qr_scan", "android": "https://dc.lft.to/lastmile_qr_scan"}, "lat": 38.920012666666665, "is_disabled": 0, "lon": -77.03199983333333, "name": "4c7dea63b09c621ddb763fda8b84b8a2", "type": "electric_scooter", "bike_id": "4c7dea63b09c621ddb763fda8b84b8a2", "is_reserved": 0}, {"rental_uris": {"ios": "https://dc.lft.to/lastmile_qr_scan", "android": "https://dc.lft.to/lastmile_qr_scan"}, "lat": 39.0143185, "is_disabled": 0, "lon": -77.10574583333333, "name": "89010e922a6763d2aa9f1bf6e5bc7d05", "type": "electric_bike", "bike_id": "89010e922a6763d2aa9f1bf6e5bc7d05", "is_reserved": 0}, {"rental_uris": {"ios": "https://dc.lft.to/lastmile_qr_scan", "android": "https://dc.lft.to/lastmile_qr_scan"}, "lat": 38.90970866666667, "is_disabled": 0, "lon": -77.0325305, "name": "74ff4fb2d4cafec09a85c956d8092b56", "type": "electric_scooter", "bike_id": "74ff4fb2d4cafec09a85c956d8092b56", "is_reserved": 0}, {"rental_uris": {"ios": "https://dc.lft.to/lastmile_qr_scan", "android": "https://dc.lft.to/lastmile_qr_scan"}, "lat": 38.991380666666664, "is_disabled": 0, "lon": -77.03422633333334, "name": "38359971836099f54ec690269c9ed165", "type": "electric_bike", "bike_id": "38359971836099f54ec690269c9ed165", "is_reserved": 0}, {"rental_uris": {"ios": "https://dc.lft.to/lastmile_qr_scan", "android": "https://dc.lft.to/lastmile_qr_scan"}, "lat": 38.89218616666667, "is_disabled": 0, "lon": -77.031618, "name": "81d31a968a6a5f88f0eaddd17de7f36b", "type": "electric_scooter", "bike_id": "81d31a968a6a5f88f0eaddd17de7f36b", "is_reserved": 0}, {"rental_uris": {"ios": "https://dc.lft.to/lastmile_qr_scan", "android": "https://dc.lft.to/lastmile_qr_scan"}, "lat": 38.902599333333335, "is_disabled": 0, "lon": -77.008094, "name": "0871831c27a55157544d080f495a42b1", "type": "electric_scooter", "bike_id": "0871831c27a55157544d080f495a42b1", "is_reserved": 0}, {"rental_uris": {"ios": "https://dc.lft.to/lastmile_qr_scan", "android": "https://dc.lft.to/lastmile_qr_scan"}, "lat": 38.9275945, "is_disabled": 0, "lon": -77.03102183333333, "name": "10a6bb65c9ec896ec3604c194666c512", "type": "electric_scooter", "bike_id": "10a6bb65c9ec896ec3604c194666c512", "is_reserved": 0}, {"rental_uris": {"ios": "https://dc.lft.to/lastmile_qr_scan", "android": "https://dc.lft.to/lastmile_qr_scan"}, "lat": 38.933673, "is_disabled": 0, "lon": -77.057308, "name": "5026ece7f2763e6df02999169c532fad", "type": "electric_scooter", "bike_id": "5026ece7f2763e6df02999169c532fad", "is_reserved": 0}, {"rental_uris": {"ios": "https://dc.lft.to/lastmile_qr_scan", "android": "https://dc.lft.to/lastmile_qr_scan"}, "lat": 38.9122245, "is_disabled": 0, "lon": -77.01336066666667, "name": "88a926d6009dc80855114c21b371008a", "type": "electric_scooter", "bike_id": "88a926d6009dc80855114c21b371008a", "is_reserved": 0}, {"rental_uris": {"ios": "https://dc.lft.to/lastmile_qr_scan", "android": "https://dc.lft.to/lastmile_qr_scan"}, "lat": 38.88809166666667, "is_disabled": 0, "lon": -77.00061016666666, "name": "11c9f3f6bcd01ba04c4d6513a32a7cec", "type": "electric_scooter", "bike_id": "11c9f3f6bcd01ba04c4d6513a32a7cec", "is_reserved": 0}, {"rental_uris": {"ios": "https://dc.lft.to/lastmile_qr_scan", "android": "https://dc.lft.to/lastmile_qr_scan"}, "lat": 38.952344, "is_disabled": 0, "lon": -77.0091265, "name": "14db6417dfb11de0ddc18ef277bef121", "type": "electric_scooter", "bike_id": "14db6417dfb11de0ddc18ef277bef121", "is_reserved": 0}, {"rental_uris": {"ios": "https://dc.lft.to/lastmile_qr_scan", "android": "https://dc.lft.to/lastmile_qr_scan"}, "lat": 38.91564833333333, "is_disabled": 0, "lon": -77.03285266666667, "name": "d8a91fa2c96e808e33104797f64853fc", "type": "electric_scooter", "bike_id": "d8a91fa2c96e808e33104797f64853fc", "is_reserved": 0}, {"rental_uris": {"ios": "https://dc.lft.to/lastmile_qr_scan", "android": "https://dc.lft.to/lastmile_qr_scan"}, "lat": 38.900613166666666, "is_disabled": 0, "lon": -77.02703783333334, "name": "c34c0d803b3e33ffac9204c811861e1a", "type": "electric_scooter", "bike_id": "c34c0d803b3e33ffac9204c811861e1a", "is_reserved": 0}, {"rental_uris": {"ios": "https://dc.lft.to/lastmile_qr_scan", "android": "https://dc.lft.to/lastmile_qr_scan"}, "lat": 38.9067295, "is_disabled": 0, "lon": -77.03660766666667, "name": "c522a54ada82b3c13c84f3f056a97efa", "type": "electric_scooter", "bike_id": "c522a54ada82b3c13c84f3f056a97efa", "is_reserved": 0}, {"rental_uris": {"ios": "https://dc.lft.to/lastmile_qr_scan", "android": "https://dc.lft.to/lastmile_qr_scan"}, "lat": 38.92724333333334, "is_disabled": 0, "lon": -77.02591483333333, "name": "8b58462d52d08ca7a794dcc6b5d99f7f", "type": "electric_scooter", "bike_id": "8b58462d52d08ca7a794dcc6b5d99f7f", "is_reserved": 0}, {"rental_uris": {"ios": "https://dc.lft.to/lastmile_qr_scan", "android": "https://dc.lft.to/lastmile_qr_scan"}, "lat": 38.9371585, "is_disabled": 0, "lon": -77.02409566666667, "name": "2ebe618aaaf7337d71b761380a2d89c5", "type": "electric_scooter", "bike_id": "2ebe618aaaf7337d71b761380a2d89c5", "is_reserved": 0}, {"rental_uris": {"ios": "https://dc.lft.to/lastmile_qr_scan", "android": "https://dc.lft.to/lastmile_qr_scan"}, "lat": 38.9168045, "is_disabled": 0, "lon": -77.03024283333333, "name": "04e9744283c78bdecb21c0178d99d5af", "type": "electric_scooter", "bike_id": "04e9744283c78bdecb21c0178d99d5af", "is_reserved": 0}, {"rental_uris": {"ios": "https://dc.lft.to/lastmile_qr_scan", "android": "https://dc.lft.to/lastmile_qr_scan"}, "lat": 38.90175716666667, "is_disabled": 0, "lon": -76.926541, "name": "63b0df191d1dfede62bbfb1b46efa9a5", "type": "electric_bike", "bike_id": "63b0df191d1dfede62bbfb1b46efa9a5", "is_reserved": 0}, {"rental_uris": {"ios": "https://dc.lft.to/lastmile_qr_scan", "android": "https://dc.lft.to/lastmile_qr_scan"}, "lat": 38.94205783333334, "is_disabled": 0, "lon": -77.08662883333334, "name": "afb31f07c34e95891f0ce5d1effbb375", "type": "electric_scooter", "bike_id": "afb31f07c34e95891f0ce5d1effbb375", "is_reserved": 0}, {"rental_uris": {"ios": "https://dc.lft.to/lastmile_qr_scan", "android": "https://dc.lft.to/lastmile_qr_scan"}, "lat": 38.90390266666667, "is_disabled": 0, "lon": -77.10811033333333, "name": "ee57a2d7831b9c176ad5152f13d98bd7", "type": "electric_bike", "bike_id": "ee57a2d7831b9c176ad5152f13d98bd7", "is_reserved": 0}, {"rental_uris": {"ios": "https://dc.lft.to/lastmile_qr_scan", "android": "https://dc.lft.to/lastmile_qr_scan"}, "lat": 38.90034416666667, "is_disabled": 0, "lon": -77.00939983333333, "name": "caaae0b91f0a964aa79870ca74e453ad", "type": "electric_scooter", "bike_id": "caaae0b91f0a964aa79870ca74e453ad", "is_reserved": 0}, {"rental_uris": {"ios": "https://dc.lft.to/lastmile_qr_scan", "android": "https://dc.lft.to/lastmile_qr_scan"}, "lat": 38.9028995, "is_disabled": 0, "lon": -77.034588, "name": "fec5b140f44a3d367a93e71863e8458c", "type": "electric_scooter", "bike_id": "fec5b140f44a3d367a93e71863e8458c", "is_reserved": 0}, {"rental_uris": {"ios": "https://dc.lft.to/lastmile_qr_scan", "android": "https://dc.lft.to/lastmile_qr_scan"}, "lat": 38.90074366666666, "is_disabled": 0, "lon": -77.024474, "name": "b76b9908acd65528a7872c92d768beda", "type": "electric_scooter", "bike_id": "b76b9908acd65528a7872c92d768beda", "is_reserved": 0}, {"rental_uris": {"ios": "https://dc.lft.to/lastmile_qr_scan", "android": "https://dc.lft.to/lastmile_qr_scan"}, "lat": 38.93094333333333, "is_disabled": 0, "lon": -77.03775933333333, "name": "2f2ed1756530371036506f23f2eefb32", "type": "electric_bike", "bike_id": "2f2ed1756530371036506f23f2eefb32", "is_reserved": 0}, {"rental_uris": {"ios": "https://dc.lft.to/lastmile_qr_scan", "android": "https://dc.lft.to/lastmile_qr_scan"}, "lat": 38.9128385, "is_disabled": 0, "lon": -76.985776, "name": "b77bd50dcbe40ad452eb747b9bca72a5", "type": "electric_bike", "bike_id": "b77bd50dcbe40ad452eb747b9bca72a5", "is_reserved": 0}, {"rental_uris": {"ios": "https://dc.lft.to/lastmile_qr_scan", "android": "https://dc.lft.to/lastmile_qr_scan"}, "lat": 38.90460083333333, "is_disabled": 0, "lon": -77.02928866666667, "name": "9b24dff6ced4990f805c9fd289784499", "type": "electric_scooter", "bike_id": "9b24dff6ced4990f805c9fd289784499", "is_reserved": 0}, {"rental_uris": {"ios": "https://dc.lft.to/lastmile_qr_scan", "android": "https://dc.lft.to/lastmile_qr_scan"}, "lat": 39.04283483333333, "is_disabled": 0, "lon": -77.11195833333333, "name": "1f59422065d709c7588dfa1b597c0475", "type": "electric_bike", "bike_id": "1f59422065d709c7588dfa1b597c0475", "is_reserved": 0}, {"rental_uris": {"ios": "https://dc.lft.to/lastmile_qr_scan", "android": "https://dc.lft.to/lastmile_qr_scan"}, "lat": 38.884311333333336, "is_disabled": 0, "lon": -77.026208, "name": "36efe55844db338a248ecc3846d26e9f", "type": "electric_scooter", "bike_id": "36efe55844db338a248ecc3846d26e9f", "is_reserved": 0}, {"rental_uris": {"ios": "https://dc.lft.to/lastmile_qr_scan", "android": "https://dc.lft.to/lastmile_qr_scan"}, "lat": 39.1098665, "is_disabled": 0, "lon": -77.20909116666667, "name": "be027667e36449854f53f54ea0497b38", "type": "electric_bike", "bike_id": "be027667e36449854f53f54ea0497b38", "is_reserved": 0}, {"rental_uris": {"ios": "https://dc.lft.to/lastmile_qr_scan", "android": "https://dc.lft.to/lastmile_qr_scan"}, "lat": 38.914060666666664, "is_disabled": 0, "lon": -77.03225433333333, "name": "794d0f237037657d0bb36dca6913c5ca", "type": "electric_scooter", "bike_id": "794d0f237037657d0bb36dca6913c5ca", "is_reserved": 0}, {"rental_uris": {"ios": "https://dc.lft.to/lastmile_qr_scan", "android": "https://dc.lft.to/lastmile_qr_scan"}, "lat": 38.917922, "is_disabled": 0, "lon": -77.02605166666666, "name": "dde5eb8544d6b381592fcd69c7d0fff3", "type": "electric_scooter", "bike_id": "dde5eb8544d6b381592fcd69c7d0fff3", "is_reserved": 0}, {"rental_uris": {"ios": "https://dc.lft.to/lastmile_qr_scan", "android": "https://dc.lft.to/lastmile_qr_scan"}, "lat": 38.919245333333336, "is_disabled": 0, "lon": -77.031747, "name": "adc66dcce3dc4cf912387b348bb009d5", "type": "electric_scooter", "bike_id": "adc66dcce3dc4cf912387b348bb009d5", "is_reserved": 0}, {"rental_uris": {"ios": "https://dc.lft.to/lastmile_qr_scan", "android": "https://dc.lft.to/lastmile_qr_scan"}, "lat": 38.88739866666667, "is_disabled": 0, "lon": -77.01616766666666, "name": "dd460b594783245f990a9cd732f9cef2", "type": "electric_scooter", "bike_id": "dd460b594783245f990a9cd732f9cef2", "is_reserved": 0}, {"rental_uris": {"ios": "https://dc.lft.to/lastmile_qr_scan", "android": "https://dc.lft.to/lastmile_qr_scan"}, "lat": 38.900913833333334, "is_disabled": 0, "lon": -77.04882916666666, "name": "48c21d796a2a1675bcce89e8a85f0204", "type": "electric_bike", "bike_id": "48c21d796a2a1675bcce89e8a85f0204", "is_reserved": 0}, {"rental_uris": {"ios": "https://dc.lft.to/lastmile_qr_scan", "android": "https://dc.lft.to/lastmile_qr_scan"}, "lat": 38.991385333333334, "is_disabled": 0, "lon": -77.03550983333334, "name": "c7c20f5bd5ca8c67d6dc860bccef0e2b", "type": "electric_bike", "bike_id": "c7c20f5bd5ca8c67d6dc860bccef0e2b", "is_reserved": 0}, {"rental_uris": {"ios": "https://dc.lft.to/lastmile_qr_scan", "android": "https://dc.lft.to/lastmile_qr_scan"}, "lat": 38.907196166666665, "is_disabled": 0, "lon": -77.0772995, "name": "349e4802b41055bb4c00bc4a5f164db7", "type": "electric_scooter", "bike_id": "349e4802b41055bb4c00bc4a5f164db7", "is_reserved": 0}, {"rental_uris": {"ios": "https://dc.lft.to/lastmile_qr_scan", "android": "https://dc.lft.to/lastmile_qr_scan"}, "lat": 38.913644, "is_disabled": 0, "lon": -77.07019133333333, "name": "bf177984785740b354bcbb07d69ad377", "type": "electric_scooter", "bike_id": "bf177984785740b354bcbb07d69ad377", "is_reserved": 0}, {"rental_uris": {"ios": "https://dc.lft.to/lastmile_qr_scan", "android": "https://dc.lft.to/lastmile_qr_scan"}, "lat": 38.90847683333333, "is_disabled": 0, "lon": -77.0093185, "name": "b09ed44c934caa241f95d951a93f70ab", "type": "electric_scooter", "bike_id": "b09ed44c934caa241f95d951a93f70ab", "is_reserved": 0}, {"rental_uris": {"ios": "https://dc.lft.to/lastmile_qr_scan", "android": "https://dc.lft.to/lastmile_qr_scan"}, "lat": 38.9024355, "is_disabled": 0, "lon": -77.04735983333333, "name": "1d763bf5e11644eeee7295f5191c19f8", "type": "electric_bike", "bike_id": "1d763bf5e11644eeee7295f5191c19f8", "is_reserved": 0}, {"rental_uris": {"ios": "https://dc.lft.to/lastmile_qr_scan", "android": "https://dc.lft.to/lastmile_qr_scan"}, "lat": 38.96309433333333, "is_disabled": 0, "lon": -77.0109695, "name": "97a0931b4cb70fdf42f66f147e50f218", "type": "electric_bike", "bike_id": "97a0931b4cb70fdf42f66f147e50f218", "is_reserved": 0}, {"rental_uris": {"ios": "https://dc.lft.to/lastmile_qr_scan", "android": "https://dc.lft.to/lastmile_qr_scan"}, "lat": 38.92482066666667, "is_disabled": 0, "lon": -77.0353105, "name": "1a0d6f561ba8e61385adb8143e81b871", "type": "electric_scooter", "bike_id": "1a0d6f561ba8e61385adb8143e81b871", "is_reserved": 0}, {"rental_uris": {"ios": "https://dc.lft.to/lastmile_qr_scan", "android": "https://dc.lft.to/lastmile_qr_scan"}, "lat": 38.90717466666667, "is_disabled": 0, "lon": -77.00335216666667, "name": "5bdd3b9da895c6b7efcd56606d438327", "type": "electric_bike", "bike_id": "5bdd3b9da895c6b7efcd56606d438327", "is_reserved": 0}, {"rental_uris": {"ios": "https://dc.lft.to/lastmile_qr_scan", "android": "https://dc.lft.to/lastmile_qr_scan"}, "lat": 38.89978833333333, "is_disabled": 0, "lon": -77.03361633333333, "name": "bbeb41aa251592d5028187cdf3f1436b", "type": "electric_scooter", "bike_id": "bbeb41aa251592d5028187cdf3f1436b", "is_reserved": 0}, {"rental_uris": {"ios": "https://dc.lft.to/lastmile_qr_scan", "android": "https://dc.lft.to/lastmile_qr_scan"}, "lat": 38.927592833333335, "is_disabled": 0, "lon": -77.031081, "name": "f0aa1a5926c04f84cf21aaed13bcce8e", "type": "electric_scooter", "bike_id": "f0aa1a5926c04f84cf21aaed13bcce8e", "is_reserved": 0}, {"rental_uris": {"ios": "https://dc.lft.to/lastmile_qr_scan", "android": "https://dc.lft.to/lastmile_qr_scan"}, "lat": 38.99763183333334, "is_disabled": 0, "lon": -77.05136783333333, "name": "dbecf16a1d64de02c87caa8280ef1b00", "type": "electric_scooter", "bike_id": "dbecf16a1d64de02c87caa8280ef1b00", "is_reserved": 0}, {"rental_uris": {"ios": "https://dc.lft.to/lastmile_qr_scan", "android": "https://dc.lft.to/lastmile_qr_scan"}, "lat": 38.887434666666664, "is_disabled": 0, "lon": -77.020384, "name": "289dbeda8c7cddad41728d8ad5ed097c", "type": "electric_scooter", "bike_id": "289dbeda8c7cddad41728d8ad5ed097c", "is_reserved": 0}, {"rental_uris": {"ios": "https://dc.lft.to/lastmile_qr_scan", "android": "https://dc.lft.to/lastmile_qr_scan"}, "lat": 38.965216166666664, "is_disabled": 0, "lon": -77.02758866666667, "name": "bec44d206eda3c235f4acab8990ec099", "type": "electric_bike", "bike_id": "bec44d206eda3c235f4acab8990ec099", "is_reserved": 0}, {"rental_uris": {"ios": "https://dc.lft.to/lastmile_qr_scan", "android": "https://dc.lft.to/lastmile_qr_scan"}, "lat": 38.91789466666667, "is_disabled": 0, "lon": -77.02604183333334, "name": "8273a6bc18c6f1c37bcf6132c7fbd414", "type": "electric_scooter", "bike_id": "8273a6bc18c6f1c37bcf6132c7fbd414", "is_reserved": 0}, {"rental_uris": {"ios": "https://dc.lft.to/lastmile_qr_scan", "android": "https://dc.lft.to/lastmile_qr_scan"}, "lat": 38.906996166666666, "is_disabled": 0, "lon": -76.98900883333333, "name": "e99f69361ec68a736ffbe2161f6967fd", "type": "electric_scooter", "bike_id": "e99f69361ec68a736ffbe2161f6967fd", "is_reserved": 0}, {"rental_uris": {"ios": "https://dc.lft.to/lastmile_qr_scan", "android": "https://dc.lft.to/lastmile_qr_scan"}, "lat": 38.93595966666667, "is_disabled": 0, "lon": -77.0242135, "name": "520187a2870e6dcfe9999c37d28c763d", "type": "electric_scooter", "bike_id": "520187a2870e6dcfe9999c37d28c763d", "is_reserved": 0}, {"rental_uris": {"ios": "https://dc.lft.to/lastmile_qr_scan", "android": "https://dc.lft.to/lastmile_qr_scan"}, "lat": 38.9289485, "is_disabled": 0, "lon": -77.032843, "name": "1723edfbb68a52c89ad48ea06310a8b8", "type": "electric_scooter", "bike_id": "1723edfbb68a52c89ad48ea06310a8b8", "is_reserved": 0}, {"rental_uris": {"ios": "https://dc.lft.to/lastmile_qr_scan", "android": "https://dc.lft.to/lastmile_qr_scan"}, "lat": 38.935741166666666, "is_disabled": 0, "lon": -77.0255755, "name": "b8122ea42e15d564ce451d7bbfc59b6c", "type": "electric_scooter", "bike_id": "b8122ea42e15d564ce451d7bbfc59b6c", "is_reserved": 0}, {"rental_uris": {"ios": "https://dc.lft.to/lastmile_qr_scan", "android": "https://dc.lft.to/lastmile_qr_scan"}, "lat": 38.917270333333335, "is_disabled": 0, "lon": -77.01915483333333, "name": "15bbf857a97e7bcf9931ad41094e8950", "type": "electric_bike", "bike_id": "15bbf857a97e7bcf9931ad41094e8950", "is_reserved": 0}, {"rental_uris": {"ios": "https://dc.lft.to/lastmile_qr_scan", "android": "https://dc.lft.to/lastmile_qr_scan"}, "lat": 38.91626933333333, "is_disabled": 0, "lon": -77.03192866666667, "name": "8206d2db3a329e2d6a4adab1eaaf1cc9", "type": "electric_bike", "bike_id": "8206d2db3a329e2d6a4adab1eaaf1cc9", "is_reserved": 0}, {"rental_uris": {"ios": "https://dc.lft.to/lastmile_qr_scan", "android": "https://dc.lft.to/lastmile_qr_scan"}, "lat": 38.953629166666666, "is_disabled": 0, "lon": -76.995105, "name": "af00cf22fef1247579edb9f4d5a847ec", "type": "electric_scooter", "bike_id": "af00cf22fef1247579edb9f4d5a847ec", "is_reserved": 0}, {"rental_uris": {"ios": "https://dc.lft.to/lastmile_qr_scan", "android": "https://dc.lft.to/lastmile_qr_scan"}, "lat": 38.9259985, "is_disabled": 0, "lon": -77.03854483333333, "name": "b2ceeda8ea63f7f333ff780f55d4b08a", "type": "electric_scooter", "bike_id": "b2ceeda8ea63f7f333ff780f55d4b08a", "is_reserved": 0}, {"rental_uris": {"ios": "https://dc.lft.to/lastmile_qr_scan", "android": "https://dc.lft.to/lastmile_qr_scan"}, "lat": 38.97550866666667, "is_disabled": 0, "lon": -76.99555966666667, "name": "33d8b1241cf01eab88e93114460fe23d", "type": "electric_scooter", "bike_id": "33d8b1241cf01eab88e93114460fe23d", "is_reserved": 0}, {"rental_uris": {"ios": "https://dc.lft.to/lastmile_qr_scan", "android": "https://dc.lft.to/lastmile_qr_scan"}, "lat": 38.86948983333333, "is_disabled": 0, "lon": -77.0960695, "name": "7e54b80c9369e12850c0538d5aac3cf4", "type": "electric_bike", "bike_id": "7e54b80c9369e12850c0538d5aac3cf4", "is_reserved": 0}, {"rental_uris": {"ios": "https://dc.lft.to/lastmile_qr_scan", "android": "https://dc.lft.to/lastmile_qr_scan"}, "lat": 38.912256666666664, "is_disabled": 0, "lon": -76.987679, "name": "5385278c9c650e6f1a735eb63e4df26e", "type": "electric_scooter", "bike_id": "5385278c9c650e6f1a735eb63e4df26e", "is_reserved": 0}, {"rental_uris": {"ios": "https://dc.lft.to/lastmile_qr_scan", "android": "https://dc.lft.to/lastmile_qr_scan"}, "lat": 38.878331, "is_disabled": 0, "lon": -76.9906825, "name": "3d45c0f22dceb0cdcde5bdbe66df2249", "type": "electric_scooter", "bike_id": "3d45c0f22dceb0cdcde5bdbe66df2249", "is_reserved": 0}, {"rental_uris": {"ios": "https://dc.lft.to/lastmile_qr_scan", "android": "https://dc.lft.to/lastmile_qr_scan"}, "lat": 38.88738333333333, "is_disabled": 0, "lon": -77.031758, "name": "0d32d375a074671d62f9a8664da8b2a5", "type": "electric_scooter", "bike_id": "0d32d375a074671d62f9a8664da8b2a5", "is_reserved": 0}, {"rental_uris": {"ios": "https://dc.lft.to/lastmile_qr_scan", "android": "https://dc.lft.to/lastmile_qr_scan"}, "lat": 38.92152016666667, "is_disabled": 0, "lon": -77.0351085, "name": "33de27a7ab1e6e5fa10e828ba053f0a2", "type": "electric_scooter", "bike_id": "33de27a7ab1e6e5fa10e828ba053f0a2", "is_reserved": 0}, {"rental_uris": {"ios": "https://dc.lft.to/lastmile_qr_scan", "android": "https://dc.lft.to/lastmile_qr_scan"}, "lat": 38.92601783333333, "is_disabled": 0, "lon": -77.02172016666667, "name": "29f89768dff8fde00118d1ca77875ef9", "type": "electric_scooter", "bike_id": "29f89768dff8fde00118d1ca77875ef9", "is_reserved": 0}, {"rental_uris": {"ios": "https://dc.lft.to/lastmile_qr_scan", "android": "https://dc.lft.to/lastmile_qr_scan"}, "lat": 38.9370735, "is_disabled": 0, "lon": -77.0663265, "name": "35147d13b3090c64e5eb4ab69eb83009", "type": "electric_scooter", "bike_id": "35147d13b3090c64e5eb4ab69eb83009", "is_reserved": 0}, {"rental_uris": {"ios": "https://dc.lft.to/lastmile_qr_scan", "android": "https://dc.lft.to/lastmile_qr_scan"}, "lat": 39.02928433333334, "is_disabled": 0, "lon": -77.1084865, "name": "4bba66244c813b7a194128c9b72f29d1", "type": "electric_bike", "bike_id": "4bba66244c813b7a194128c9b72f29d1", "is_reserved": 0}, {"rental_uris": {"ios": "https://dc.lft.to/lastmile_qr_scan", "android": "https://dc.lft.to/lastmile_qr_scan"}, "lat": 38.872297333333336, "is_disabled": 0, "lon": -77.01189366666667, "name": "e1505d35a4bdafc9895173a1cd8478c9", "type": "electric_scooter", "bike_id": "e1505d35a4bdafc9895173a1cd8478c9", "is_reserved": 0}, {"rental_uris": {"ios": "https://dc.lft.to/lastmile_qr_scan", "android": "https://dc.lft.to/lastmile_qr_scan"}, "lat": 38.866520333333334, "is_disabled": 0, "lon": -76.9891095, "name": "66668eff10b29bab6ac9eca60c8a85cc", "type": "electric_scooter", "bike_id": "66668eff10b29bab6ac9eca60c8a85cc", "is_reserved": 0}, {"rental_uris": {"ios": "https://dc.lft.to/lastmile_qr_scan", "android": "https://dc.lft.to/lastmile_qr_scan"}, "lat": 38.997476666666664, "is_disabled": 0, "lon": -77.02721916666667, "name": "ef1e31b3ef350813418580668de5c64d", "type": "electric_scooter", "bike_id": "ef1e31b3ef350813418580668de5c64d", "is_reserved": 0}, {"rental_uris": {"ios": "https://dc.lft.to/lastmile_qr_scan", "android": "https://dc.lft.to/lastmile_qr_scan"}, "lat": 38.89460666666667, "is_disabled": 0, "lon": -77.01617066666667, "name": "f2a5bd0adf72b9085ea7dcc5096d5abe", "type": "electric_bike", "bike_id": "f2a5bd0adf72b9085ea7dcc5096d5abe", "is_reserved": 0}, {"rental_uris": {"ios": "https://dc.lft.to/lastmile_qr_scan", "android": "https://dc.lft.to/lastmile_qr_scan"}, "lat": 38.898580333333335, "is_disabled": 0, "lon": -76.94684216666667, "name": "456e60947eaf6ef1c436a65cdadc12eb", "type": "electric_scooter", "bike_id": "456e60947eaf6ef1c436a65cdadc12eb", "is_reserved": 0}, {"rental_uris": {"ios": "https://dc.lft.to/lastmile_qr_scan", "android": "https://dc.lft.to/lastmile_qr_scan"}, "lat": 38.88019366666666, "is_disabled": 0, "lon": -76.9857675, "name": "b0f4d32fc771bf03fd2ef52f01e094e1", "type": "electric_scooter", "bike_id": "b0f4d32fc771bf03fd2ef52f01e094e1", "is_reserved": 0}, {"rental_uris": {"ios": "https://dc.lft.to/lastmile_qr_scan", "android": "https://dc.lft.to/lastmile_qr_scan"}, "lat": 38.905655333333335, "is_disabled": 0, "lon": -77.06196316666667, "name": "64ea2db9aa827ca31c226fdaa6dec133", "type": "electric_bike", "bike_id": "64ea2db9aa827ca31c226fdaa6dec133", "is_reserved": 0}, {"rental_uris": {"ios": "https://dc.lft.to/lastmile_qr_scan", "android": "https://dc.lft.to/lastmile_qr_scan"}, "lat": 38.90677616666667, "is_disabled": 0, "lon": -76.98665266666667, "name": "66347ec3d1326d7c3aa35a4a714117c9", "type": "electric_scooter", "bike_id": "66347ec3d1326d7c3aa35a4a714117c9", "is_reserved": 0}, {"rental_uris": {"ios": "https://dc.lft.to/lastmile_qr_scan", "android": "https://dc.lft.to/lastmile_qr_scan"}, "lat": 38.917542166666664, "is_disabled": 0, "lon": -77.04060816666667, "name": "7a7261c2cb32823bddf8a1489c6c9731", "type": "electric_scooter", "bike_id": "7a7261c2cb32823bddf8a1489c6c9731", "is_reserved": 0}, {"rental_uris": {"ios": "https://dc.lft.to/lastmile_qr_scan", "android": "https://dc.lft.to/lastmile_qr_scan"}, "lat": 38.92157433333333, "is_disabled": 0, "lon": -77.03293666666667, "name": "d64b5979fcf6e81dd1821eab7e8f3015", "type": "electric_scooter", "bike_id": "d64b5979fcf6e81dd1821eab7e8f3015", "is_reserved": 0}, {"rental_uris": {"ios": "https://dc.lft.to/lastmile_qr_scan", "android": "https://dc.lft.to/lastmile_qr_scan"}, "lat": 38.8922025, "is_disabled": 0, "lon": -77.02223833333333, "name": "f92f69ea5e3bac6f9438e2969efb21ca", "type": "electric_scooter", "bike_id": "f92f69ea5e3bac6f9438e2969efb21ca", "is_reserved": 0}, {"rental_uris": {"ios": "https://dc.lft.to/lastmile_qr_scan", "android": "https://dc.lft.to/lastmile_qr_scan"}, "lat": 38.9759105, "is_disabled": 0, "lon": -77.057463, "name": "34762ab4f7b8eaedd5a41730b92cd48e", "type": "electric_bike", "bike_id": "34762ab4f7b8eaedd5a41730b92cd48e", "is_reserved": 0}, {"rental_uris": {"ios": "https://dc.lft.to/lastmile_qr_scan", "android": "https://dc.lft.to/lastmile_qr_scan"}, "lat": 38.900298, "is_disabled": 0, "lon": -77.00255866666667, "name": "70773135273096337c5426499064aa84", "type": "electric_scooter", "bike_id": "70773135273096337c5426499064aa84", "is_reserved": 0}, {"rental_uris": {"ios": "https://dc.lft.to/lastmile_qr_scan", "android": "https://dc.lft.to/lastmile_qr_scan"}, "lat": 38.91410183333333, "is_disabled": 0, "lon": -77.03337716666667, "name": "eef6fca8d1ddb697fe93ca956c0b1d3f", "type": "electric_scooter", "bike_id": "eef6fca8d1ddb697fe93ca956c0b1d3f", "is_reserved": 0}, {"rental_uris": {"ios": "https://dc.lft.to/lastmile_qr_scan", "android": "https://dc.lft.to/lastmile_qr_scan"}, "lat": 38.90717733333334, "is_disabled": 0, "lon": -77.02444416666667, "name": "36ef4aab2e7c4c2a90d8a879d4a852e1", "type": "electric_scooter", "bike_id": "36ef4aab2e7c4c2a90d8a879d4a852e1", "is_reserved": 0}, {"rental_uris": {"ios": "https://dc.lft.to/lastmile_qr_scan", "android": "https://dc.lft.to/lastmile_qr_scan"}, "lat": 38.99163983333333, "is_disabled": 0, "lon": -76.97643766666667, "name": "48bf456e6594bbff1109c41faadfbf85", "type": "electric_bike", "bike_id": "48bf456e6594bbff1109c41faadfbf85", "is_reserved": 0}, {"rental_uris": {"ios": "https://dc.lft.to/lastmile_qr_scan", "android": "https://dc.lft.to/lastmile_qr_scan"}, "lat": 39.00156916666667, "is_disabled": 0, "lon": -77.00083033333334, "name": "bea6db49360e8c684f45e098d2d89ecc", "type": "electric_scooter", "bike_id": "bea6db49360e8c684f45e098d2d89ecc", "is_reserved": 0}, {"rental_uris": {"ios": "https://dc.lft.to/lastmile_qr_scan", "android": "https://dc.lft.to/lastmile_qr_scan"}, "lat": 38.970249333333335, "is_disabled": 0, "lon": -77.00844566666666, "name": "b718ed8b5876e0e482ee3c8b186af9ab", "type": "electric_scooter", "bike_id": "b718ed8b5876e0e482ee3c8b186af9ab", "is_reserved": 0}, {"rental_uris": {"ios": "https://dc.lft.to/lastmile_qr_scan", "android": "https://dc.lft.to/lastmile_qr_scan"}, "lat": 38.92231266666667, "is_disabled": 0, "lon": -77.00210933333334, "name": "36f2b2f898d9c7496e708f8abf844816", "type": "electric_bike", "bike_id": "36f2b2f898d9c7496e708f8abf844816", "is_reserved": 0}, {"rental_uris": {"ios": "https://dc.lft.to/lastmile_qr_scan", "android": "https://dc.lft.to/lastmile_qr_scan"}, "lat": 38.873695, "is_disabled": 0, "lon": -77.00608466666667, "name": "ce38417cf3f3668f70fcebb06825ada8", "type": "electric_scooter", "bike_id": "ce38417cf3f3668f70fcebb06825ada8", "is_reserved": 0}, {"rental_uris": {"ios": "https://dc.lft.to/lastmile_qr_scan", "android": "https://dc.lft.to/lastmile_qr_scan"}, "lat": 38.90439516666667, "is_disabled": 0, "lon": -77.05344433333333, "name": "e5dc62f759e246de85f4824d0c9078ae", "type": "electric_scooter", "bike_id": "e5dc62f759e246de85f4824d0c9078ae", "is_reserved": 0}, {"rental_uris": {"ios": "https://dc.lft.to/lastmile_qr_scan", "android": "https://dc.lft.to/lastmile_qr_scan"}, "lat": 38.921482, "is_disabled": 0, "lon": -77.03508083333334, "name": "40f3866a979dc9214fc56de72350e8c0", "type": "electric_scooter", "bike_id": "40f3866a979dc9214fc56de72350e8c0", "is_reserved": 0}, {"rental_uris": {"ios": "https://dc.lft.to/lastmile_qr_scan", "android": "https://dc.lft.to/lastmile_qr_scan"}, "lat": 38.895252, "is_disabled": 0, "lon": -77.01996433333333, "name": "281c32796e8d83f2ffd767e081a280b3", "type": "electric_scooter", "bike_id": "281c32796e8d83f2ffd767e081a280b3", "is_reserved": 0}, {"rental_uris": {"ios": "https://dc.lft.to/lastmile_qr_scan", "android": "https://dc.lft.to/lastmile_qr_scan"}, "lat": 38.9121925, "is_disabled": 0, "lon": -77.038401, "name": "f476d87e18b6c6f4c5c82ea5aea0ccfa", "type": "electric_scooter", "bike_id": "f476d87e18b6c6f4c5c82ea5aea0ccfa", "is_reserved": 0}, {"rental_uris": {"ios": "https://dc.lft.to/lastmile_qr_scan", "android": "https://dc.lft.to/lastmile_qr_scan"}, "lat": 38.92373216666667, "is_disabled": 0, "lon": -77.02689833333334, "name": "5b91f95f0650b9647d3f6d898610626c", "type": "electric_scooter", "bike_id": "5b91f95f0650b9647d3f6d898610626c", "is_reserved": 0}, {"rental_uris": {"ios": "https://dc.lft.to/lastmile_qr_scan", "android": "https://dc.lft.to/lastmile_qr_scan"}, "lat": 38.913369, "is_disabled": 0, "lon": -77.03444883333333, "name": "a660e046d4b9473ea92b6971663ef86a", "type": "electric_scooter", "bike_id": "a660e046d4b9473ea92b6971663ef86a", "is_reserved": 0}, {"rental_uris": {"ios": "https://dc.lft.to/lastmile_qr_scan", "android": "https://dc.lft.to/lastmile_qr_scan"}, "lat": 38.8988205, "is_disabled": 0, "lon": -76.98491583333333, "name": "fe129d31d9c91d5e8fea465499739d7c", "type": "electric_scooter", "bike_id": "fe129d31d9c91d5e8fea465499739d7c", "is_reserved": 0}, {"rental_uris": {"ios": "https://dc.lft.to/lastmile_qr_scan", "android": "https://dc.lft.to/lastmile_qr_scan"}, "lat": 38.995911, "is_disabled": 0, "lon": -77.0013675, "name": "5a60acbad6c2f3929be8d46f090c3e08", "type": "electric_bike", "bike_id": "5a60acbad6c2f3929be8d46f090c3e08", "is_reserved": 0}, {"rental_uris": {"ios": "https://dc.lft.to/lastmile_qr_scan", "android": "https://dc.lft.to/lastmile_qr_scan"}, "lat": 38.92281, "is_disabled": 0, "lon": -77.032169, "name": "494a8002019b06b40257a6707e1e4db9", "type": "electric_scooter", "bike_id": "494a8002019b06b40257a6707e1e4db9", "is_reserved": 0}, {"rental_uris": {"ios": "https://dc.lft.to/lastmile_qr_scan", "android": "https://dc.lft.to/lastmile_qr_scan"}, "lat": 38.9072945, "is_disabled": 0, "lon": -77.00027733333333, "name": "346502365952d8ac0fc3601b9200f665", "type": "electric_scooter", "bike_id": "346502365952d8ac0fc3601b9200f665", "is_reserved": 0}, {"rental_uris": {"ios": "https://dc.lft.to/lastmile_qr_scan", "android": "https://dc.lft.to/lastmile_qr_scan"}, "lat": 39.0329245, "is_disabled": 0, "lon": -77.11609116666666, "name": "0cd176f9b29afa03d510c23e7b5f6cc0", "type": "electric_bike", "bike_id": "0cd176f9b29afa03d510c23e7b5f6cc0", "is_reserved": 0}, {"rental_uris": {"ios": "https://dc.lft.to/lastmile_qr_scan", "android": "https://dc.lft.to/lastmile_qr_scan"}, "lat": 38.910463166666666, "is_disabled": 0, "lon": -77.0220285, "name": "ccd84ff34c0c6cbf3de9eaaca309cd17", "type": "electric_scooter", "bike_id": "ccd84ff34c0c6cbf3de9eaaca309cd17", "is_reserved": 0}, {"rental_uris": {"ios": "https://dc.lft.to/lastmile_qr_scan", "android": "https://dc.lft.to/lastmile_qr_scan"}, "lat": 38.901093833333334, "is_disabled": 0, "lon": -77.029623, "name": "3929888cffce4acb8ab2acb75299bdc2", "type": "electric_scooter", "bike_id": "3929888cffce4acb8ab2acb75299bdc2", "is_reserved": 0}, {"rental_uris": {"ios": "https://dc.lft.to/lastmile_qr_scan", "android": "https://dc.lft.to/lastmile_qr_scan"}, "lat": 38.99226066666667, "is_disabled": 0, "lon": -77.03095833333333, "name": "15c415c70e26d069f045b06b3897aa96", "type": "electric_scooter", "bike_id": "15c415c70e26d069f045b06b3897aa96", "is_reserved": 0}, {"rental_uris": {"ios": "https://dc.lft.to/lastmile_qr_scan", "android": "https://dc.lft.to/lastmile_qr_scan"}, "lat": 38.89484216666666, "is_disabled": 0, "lon": -76.8952895, "name": "c4a818516c18f37266d685a12f4e5247", "type": "electric_bike", "bike_id": "c4a818516c18f37266d685a12f4e5247", "is_reserved": 0}, {"rental_uris": {"ios": "https://dc.lft.to/lastmile_qr_scan", "android": "https://dc.lft.to/lastmile_qr_scan"}, "lat": 38.9939195, "is_disabled": 0, "lon": -77.03216316666666, "name": "2e9d8de68766249bd8b140f5009d112b", "type": "electric_scooter", "bike_id": "2e9d8de68766249bd8b140f5009d112b", "is_reserved": 0}, {"rental_uris": {"ios": "https://dc.lft.to/lastmile_qr_scan", "android": "https://dc.lft.to/lastmile_qr_scan"}, "lat": 38.925957333333336, "is_disabled": 0, "lon": -77.03871083333334, "name": "069405d6efad6401ba4f2c9981ddd224", "type": "electric_scooter", "bike_id": "069405d6efad6401ba4f2c9981ddd224", "is_reserved": 0}, {"rental_uris": {"ios": "https://dc.lft.to/lastmile_qr_scan", "android": "https://dc.lft.to/lastmile_qr_scan"}, "lat": 38.903523166666666, "is_disabled": 0, "lon": -76.95012066666666, "name": "ad311869a993f28d2c2ab6177dcd076b", "type": "electric_bike", "bike_id": "ad311869a993f28d2c2ab6177dcd076b", "is_reserved": 0}, {"rental_uris": {"ios": "https://dc.lft.to/lastmile_qr_scan", "android": "https://dc.lft.to/lastmile_qr_scan"}, "lat": 38.914150666666664, "is_disabled": 0, "lon": -77.00240616666666, "name": "ea1a937868ab15acdd838913536cee60", "type": "electric_scooter", "bike_id": "ea1a937868ab15acdd838913536cee60", "is_reserved": 0}, {"rental_uris": {"ios": "https://dc.lft.to/lastmile_qr_scan", "android": "https://dc.lft.to/lastmile_qr_scan"}, "lat": 38.91556, "is_disabled": 0, "lon": -77.0676665, "name": "26ddc73b5c98ffda896200edd0a8526d", "type": "electric_scooter", "bike_id": "26ddc73b5c98ffda896200edd0a8526d", "is_reserved": 0}, {"rental_uris": {"ios": "https://dc.lft.to/lastmile_qr_scan", "android": "https://dc.lft.to/lastmile_qr_scan"}, "lat": 38.9202015, "is_disabled": 0, "lon": -77.02184933333334, "name": "ba74d5a0474b4ad8c99090e503f87c55", "type": "electric_scooter", "bike_id": "ba74d5a0474b4ad8c99090e503f87c55", "is_reserved": 0}, {"rental_uris": {"ios": "https://dc.lft.to/lastmile_qr_scan", "android": "https://dc.lft.to/lastmile_qr_scan"}, "lat": 38.89222633333333, "is_disabled": 0, "lon": -77.02368466666667, "name": "a01371537c55258496a2a5cc69f0b11c", "type": "electric_scooter", "bike_id": "a01371537c55258496a2a5cc69f0b11c", "is_reserved": 0}, {"rental_uris": {"ios": "https://dc.lft.to/lastmile_qr_scan", "android": "https://dc.lft.to/lastmile_qr_scan"}, "lat": 38.910580333333336, "is_disabled": 0, "lon": -77.08195116666667, "name": "b4686488f1eadd95a620f5f48e49a200", "type": "electric_bike", "bike_id": "b4686488f1eadd95a620f5f48e49a200", "is_reserved": 0}, {"rental_uris": {"ios": "https://dc.lft.to/lastmile_qr_scan", "android": "https://dc.lft.to/lastmile_qr_scan"}, "lat": 38.9082165, "is_disabled": 0, "lon": -76.99707933333333, "name": "d4ae33227788b51a4ff8f176c265796f", "type": "electric_scooter", "bike_id": "d4ae33227788b51a4ff8f176c265796f", "is_reserved": 0}, {"rental_uris": {"ios": "https://dc.lft.to/lastmile_qr_scan", "android": "https://dc.lft.to/lastmile_qr_scan"}, "lat": 38.91782333333333, "is_disabled": 0, "lon": -77.04736433333333, "name": "678f78637154412ec6a4752b4571d8eb", "type": "electric_scooter", "bike_id": "678f78637154412ec6a4752b4571d8eb", "is_reserved": 0}, {"rental_uris": {"ios": "https://dc.lft.to/lastmile_qr_scan", "android": "https://dc.lft.to/lastmile_qr_scan"}, "lat": 38.90727483333333, "is_disabled": 0, "lon": -77.048625, "name": "4cec251a5131af1324a9692b45d7236c", "type": "electric_scooter", "bike_id": "4cec251a5131af1324a9692b45d7236c", "is_reserved": 0}, {"rental_uris": {"ios": "https://dc.lft.to/lastmile_qr_scan", "android": "https://dc.lft.to/lastmile_qr_scan"}, "lat": 38.897853166666664, "is_disabled": 0, "lon": -76.95042366666667, "name": "cb768cb8ace323aab019151103962397", "type": "electric_bike", "bike_id": "cb768cb8ace323aab019151103962397", "is_reserved": 0}, {"rental_uris": {"ios": "https://dc.lft.to/lastmile_qr_scan", "android": "https://dc.lft.to/lastmile_qr_scan"}, "lat": 38.90791816666667, "is_disabled": 0, "lon": -77.001928, "name": "3d89e49b73b57578c62f8eab08d72658", "type": "electric_bike", "bike_id": "3d89e49b73b57578c62f8eab08d72658", "is_reserved": 0}, {"rental_uris": {"ios": "https://dc.lft.to/lastmile_qr_scan", "android": "https://dc.lft.to/lastmile_qr_scan"}, "lat": 38.930583, "is_disabled": 0, "lon": -77.04009216666667, "name": "d692e1e087e0c5a789f365d5ec9a4e00", "type": "electric_scooter", "bike_id": "d692e1e087e0c5a789f365d5ec9a4e00", "is_reserved": 0}, {"rental_uris": {"ios": "https://dc.lft.to/lastmile_qr_scan", "android": "https://dc.lft.to/lastmile_qr_scan"}, "lat": 38.9025555, "is_disabled": 0, "lon": -76.99667283333334, "name": "69429f02cb8353870db87154ace20968", "type": "electric_scooter", "bike_id": "69429f02cb8353870db87154ace20968", "is_reserved": 0}, {"rental_uris": {"ios": "https://dc.lft.to/lastmile_qr_scan", "android": "https://dc.lft.to/lastmile_qr_scan"}, "lat": 38.996685166666666, "is_disabled": 0, "lon": -77.02783266666667, "name": "4a9b49333923f804b057300310b05591", "type": "electric_scooter", "bike_id": "4a9b49333923f804b057300310b05591", "is_reserved": 0}, {"rental_uris": {"ios": "https://dc.lft.to/lastmile_qr_scan", "android": "https://dc.lft.to/lastmile_qr_scan"}, "lat": 38.98253233333333, "is_disabled": 0, "lon": -76.96978766666666, "name": "620c206661550369a5749c82261741d3", "type": "electric_bike", "bike_id": "620c206661550369a5749c82261741d3", "is_reserved": 0}, {"rental_uris": {"ios": "https://dc.lft.to/lastmile_qr_scan", "android": "https://dc.lft.to/lastmile_qr_scan"}, "lat": 38.97881433333333, "is_disabled": 0, "lon": -77.0296755, "name": "c3f2e5a2156e4453476a8df4a7dc17a1", "type": "electric_scooter", "bike_id": "c3f2e5a2156e4453476a8df4a7dc17a1", "is_reserved": 0}, {"rental_uris": {"ios": "https://dc.lft.to/lastmile_qr_scan", "android": "https://dc.lft.to/lastmile_qr_scan"}, "lat": 38.8516845, "is_disabled": 0, "lon": -76.98047383333333, "name": "8e8c1f7455f2d2cf796d8b0a5b11063d", "type": "electric_bike", "bike_id": "8e8c1f7455f2d2cf796d8b0a5b11063d", "is_reserved": 0}, {"rental_uris": {"ios": "https://dc.lft.to/lastmile_qr_scan", "android": "https://dc.lft.to/lastmile_qr_scan"}, "lat": 38.892282333333334, "is_disabled": 0, "lon": -77.04876383333334, "name": "450d4996861e9ceafed5d51512899890", "type": "electric_scooter", "bike_id": "450d4996861e9ceafed5d51512899890", "is_reserved": 0}, {"rental_uris": {"ios": "https://dc.lft.to/lastmile_qr_scan", "android": "https://dc.lft.to/lastmile_qr_scan"}, "lat": 38.87404216666667, "is_disabled": 0, "lon": -77.0001435, "name": "70376a341ba3714c36f383ba04cc352b", "type": "electric_scooter", "bike_id": "70376a341ba3714c36f383ba04cc352b", "is_reserved": 0}, {"rental_uris": {"ios": "https://dc.lft.to/lastmile_qr_scan", "android": "https://dc.lft.to/lastmile_qr_scan"}, "lat": 38.870622833333336, "is_disabled": 0, "lon": -77.01233016666667, "name": "2125cbabf9ffdd52440f4167d8bc7d30", "type": "electric_bike", "bike_id": "2125cbabf9ffdd52440f4167d8bc7d30", "is_reserved": 0}, {"rental_uris": {"ios": "https://dc.lft.to/lastmile_qr_scan", "android": "https://dc.lft.to/lastmile_qr_scan"}, "lat": 38.90113083333333, "is_disabled": 0, "lon": -77.029745, "name": "44c95ff18699d2750a52929a1fab6886", "type": "electric_scooter", "bike_id": "44c95ff18699d2750a52929a1fab6886", "is_reserved": 0}, {"rental_uris": {"ios": "https://dc.lft.to/lastmile_qr_scan", "android": "https://dc.lft.to/lastmile_qr_scan"}, "lat": 38.960278333333335, "is_disabled": 0, "lon": -77.02977883333334, "name": "320f7173ddd99fe142faf36328bf8a2d", "type": "electric_scooter", "bike_id": "320f7173ddd99fe142faf36328bf8a2d", "is_reserved": 0}, {"rental_uris": {"ios": "https://dc.lft.to/lastmile_qr_scan", "android": "https://dc.lft.to/lastmile_qr_scan"}, "lat": 38.921578833333335, "is_disabled": 0, "lon": -76.9940215, "name": "a881b033c6541210f217423aea0c8251", "type": "electric_scooter", "bike_id": "a881b033c6541210f217423aea0c8251", "is_reserved": 0}, {"rental_uris": {"ios": "https://dc.lft.to/lastmile_qr_scan", "android": "https://dc.lft.to/lastmile_qr_scan"}, "lat": 38.943419666666664, "is_disabled": 0, "lon": -77.06139016666667, "name": "03bf1b0ecf2f59dfca09878d8683160d", "type": "electric_scooter", "bike_id": "03bf1b0ecf2f59dfca09878d8683160d", "is_reserved": 0}, {"rental_uris": {"ios": "https://dc.lft.to/lastmile_qr_scan", "android": "https://dc.lft.to/lastmile_qr_scan"}, "lat": 38.908499666666664, "is_disabled": 0, "lon": -77.01064516666666, "name": "6acc6d73eeecbeb785a6ac0aa150446c", "type": "electric_scooter", "bike_id": "6acc6d73eeecbeb785a6ac0aa150446c", "is_reserved": 0}, {"rental_uris": {"ios": "https://dc.lft.to/lastmile_qr_scan", "android": "https://dc.lft.to/lastmile_qr_scan"}, "lat": 38.9953385, "is_disabled": 0, "lon": -77.024627, "name": "2d40a0528cd79893f011af8ac7a20c46", "type": "electric_scooter", "bike_id": "2d40a0528cd79893f011af8ac7a20c46", "is_reserved": 0}, {"rental_uris": {"ios": "https://dc.lft.to/lastmile_qr_scan", "android": "https://dc.lft.to/lastmile_qr_scan"}, "lat": 38.8982065, "is_disabled": 0, "lon": -77.02781, "name": "8e51b69bcb7da5ca285db13829aebc61", "type": "electric_scooter", "bike_id": "8e51b69bcb7da5ca285db13829aebc61", "is_reserved": 0}, {"rental_uris": {"ios": "https://dc.lft.to/lastmile_qr_scan", "android": "https://dc.lft.to/lastmile_qr_scan"}, "lat": 38.924522, "is_disabled": 0, "lon": -76.98486166666666, "name": "860c9e653ec84055fc3f18fd567af378", "type": "electric_scooter", "bike_id": "860c9e653ec84055fc3f18fd567af378", "is_reserved": 0}, {"rental_uris": {"ios": "https://dc.lft.to/lastmile_qr_scan", "android": "https://dc.lft.to/lastmile_qr_scan"}, "lat": 38.892096, "is_disabled": 0, "lon": -77.03205866666667, "name": "3a408f6ec40d4e612192364d979c120d", "type": "electric_scooter", "bike_id": "3a408f6ec40d4e612192364d979c120d", "is_reserved": 0}, {"rental_uris": {"ios": "https://dc.lft.to/lastmile_qr_scan", "android": "https://dc.lft.to/lastmile_qr_scan"}, "lat": 38.89380516666667, "is_disabled": 0, "lon": -77.01105066666666, "name": "8661862aff1d041c59192a04e02330b7", "type": "electric_scooter", "bike_id": "8661862aff1d041c59192a04e02330b7", "is_reserved": 0}, {"rental_uris": {"ios": "https://dc.lft.to/lastmile_qr_scan", "android": "https://dc.lft.to/lastmile_qr_scan"}, "lat": 38.93254616666667, "is_disabled": 0, "lon": -77.026683, "name": "db3d6e552dbc02b842b560c1692d9fdd", "type": "electric_scooter", "bike_id": "db3d6e552dbc02b842b560c1692d9fdd", "is_reserved": 0}, {"rental_uris": {"ios": "https://dc.lft.to/lastmile_qr_scan", "android": "https://dc.lft.to/lastmile_qr_scan"}, "lat": 38.92526633333333, "is_disabled": 0, "lon": -77.03447383333334, "name": "4dfc17884da2a22451b11878a0016dd7", "type": "electric_scooter", "bike_id": "4dfc17884da2a22451b11878a0016dd7", "is_reserved": 0}, {"rental_uris": {"ios": "https://dc.lft.to/lastmile_qr_scan", "android": "https://dc.lft.to/lastmile_qr_scan"}, "lat": 38.889892333333336, "is_disabled": 0, "lon": -76.93193133333334, "name": "16ce64db13c9b3011a0ad803d82747a7", "type": "electric_bike", "bike_id": "16ce64db13c9b3011a0ad803d82747a7", "is_reserved": 0}, {"rental_uris": {"ios": "https://dc.lft.to/lastmile_qr_scan", "android": "https://dc.lft.to/lastmile_qr_scan"}, "lat": 38.87637566666667, "is_disabled": 0, "lon": -76.99390383333333, "name": "96dcf530fc0cb5e727bbdb1dd3b0fc18", "type": "electric_scooter", "bike_id": "96dcf530fc0cb5e727bbdb1dd3b0fc18", "is_reserved": 0}, {"rental_uris": {"ios": "https://dc.lft.to/lastmile_qr_scan", "android": "https://dc.lft.to/lastmile_qr_scan"}, "lat": 38.8736335, "is_disabled": 0, "lon": -77.0060565, "name": "b673a617f426db2cfd7e6c1b87a1a88d", "type": "electric_scooter", "bike_id": "b673a617f426db2cfd7e6c1b87a1a88d", "is_reserved": 0}, {"rental_uris": {"ios": "https://dc.lft.to/lastmile_qr_scan", "android": "https://dc.lft.to/lastmile_qr_scan"}, "lat": 38.95440283333333, "is_disabled": 0, "lon": -76.9842775, "name": "1cc8f683de0bc8a2193965d0581a6791", "type": "electric_bike", "bike_id": "1cc8f683de0bc8a2193965d0581a6791", "is_reserved": 0}, {"rental_uris": {"ios": "https://dc.lft.to/lastmile_qr_scan", "android": "https://dc.lft.to/lastmile_qr_scan"}, "lat": 38.89856416666667, "is_disabled": 0, "lon": -76.97892616666667, "name": "b0353aefee973a7ae49a89a919e2a06d", "type": "electric_scooter", "bike_id": "b0353aefee973a7ae49a89a919e2a06d", "is_reserved": 0}, {"rental_uris": {"ios": "https://dc.lft.to/lastmile_qr_scan", "android": "https://dc.lft.to/lastmile_qr_scan"}, "lat": 38.892307333333335, "is_disabled": 0, "lon": -77.04873466666666, "name": "fc72dcd87c52f2b741e27aaa6e617075", "type": "electric_scooter", "bike_id": "fc72dcd87c52f2b741e27aaa6e617075", "is_reserved": 0}, {"rental_uris": {"ios": "https://dc.lft.to/lastmile_qr_scan", "android": "https://dc.lft.to/lastmile_qr_scan"}, "lat": 38.87877483333333, "is_disabled": 0, "lon": -77.02081166666666, "name": "9aed2d64f7e3f76e6b192188f84fa5e9", "type": "electric_scooter", "bike_id": "9aed2d64f7e3f76e6b192188f84fa5e9", "is_reserved": 0}, {"rental_uris": {"ios": "https://dc.lft.to/lastmile_qr_scan", "android": "https://dc.lft.to/lastmile_qr_scan"}, "lat": 38.90951583333333, "is_disabled": 0, "lon": -77.04609866666667, "name": "4676bdf4dd14ee82eaa2e1a295f10a91", "type": "electric_scooter", "bike_id": "4676bdf4dd14ee82eaa2e1a295f10a91", "is_reserved": 0}, {"rental_uris": {"ios": "https://dc.lft.to/lastmile_qr_scan", "android": "https://dc.lft.to/lastmile_qr_scan"}, "lat": 38.9237345, "is_disabled": 0, "lon": -77.02682366666667, "name": "f3f0be86bcb1c08c0ba8ea91e6c9c69a", "type": "electric_scooter", "bike_id": "f3f0be86bcb1c08c0ba8ea91e6c9c69a", "is_reserved": 0}, {"rental_uris": {"ios": "https://dc.lft.to/lastmile_qr_scan", "android": "https://dc.lft.to/lastmile_qr_scan"}, "lat": 38.900363666666664, "is_disabled": 0, "lon": -77.01226133333333, "name": "a6c9e10670cc0b0fbb517a88c1f9fc76", "type": "electric_scooter", "bike_id": "a6c9e10670cc0b0fbb517a88c1f9fc76", "is_reserved": 0}, {"rental_uris": {"ios": "https://dc.lft.to/lastmile_qr_scan", "android": "https://dc.lft.to/lastmile_qr_scan"}, "lat": 38.88898316666667, "is_disabled": 0, "lon": -77.18414083333333, "name": "a1afffe30abc5e5c5b731af289b963cb", "type": "electric_bike", "bike_id": "a1afffe30abc5e5c5b731af289b963cb", "is_reserved": 0}, {"rental_uris": {"ios": "https://dc.lft.to/lastmile_qr_scan", "android": "https://dc.lft.to/lastmile_qr_scan"}, "lat": 38.89753416666667, "is_disabled": 0, "lon": -77.0188825, "name": "0b8ab04785f8c99716af1f3b9da4b4db", "type": "electric_scooter", "bike_id": "0b8ab04785f8c99716af1f3b9da4b4db", "is_reserved": 0}, {"rental_uris": {"ios": "https://dc.lft.to/lastmile_qr_scan", "android": "https://dc.lft.to/lastmile_qr_scan"}, "lat": 38.910092166666665, "is_disabled": 0, "lon": -77.02875716666667, "name": "b8e7f02cdacd2c13fbd3fba93d7faba4", "type": "electric_scooter", "bike_id": "b8e7f02cdacd2c13fbd3fba93d7faba4", "is_reserved": 0}, {"rental_uris": {"ios": "https://dc.lft.to/lastmile_qr_scan", "android": "https://dc.lft.to/lastmile_qr_scan"}, "lat": 38.99679283333333, "is_disabled": 0, "lon": -77.03027466666667, "name": "cfc6370f956a919863d08b8daeeb739c", "type": "electric_scooter", "bike_id": "cfc6370f956a919863d08b8daeeb739c", "is_reserved": 0}, {"rental_uris": {"ios": "https://dc.lft.to/lastmile_qr_scan", "android": "https://dc.lft.to/lastmile_qr_scan"}, "lat": 38.900614166666664, "is_disabled": 0, "lon": -77.04946683333333, "name": "a2374f09b7ec258ff03b08aa55543db0", "type": "electric_scooter", "bike_id": "a2374f09b7ec258ff03b08aa55543db0", "is_reserved": 0}, {"rental_uris": {"ios": "https://dc.lft.to/lastmile_qr_scan", "android": "https://dc.lft.to/lastmile_qr_scan"}, "lat": 38.88723516666667, "is_disabled": 0, "lon": -76.89648933333334, "name": "6069b1d92de8f0c971dbe145f8b09b35", "type": "electric_bike", "bike_id": "6069b1d92de8f0c971dbe145f8b09b35", "is_reserved": 0}, {"rental_uris": {"ios": "https://dc.lft.to/lastmile_qr_scan", "android": "https://dc.lft.to/lastmile_qr_scan"}, "lat": 38.93423416666667, "is_disabled": 0, "lon": -77.04010316666667, "name": "404cf8602f5088036b3ceefc1122acec", "type": "electric_scooter", "bike_id": "404cf8602f5088036b3ceefc1122acec", "is_reserved": 0}, {"rental_uris": {"ios": "https://dc.lft.to/lastmile_qr_scan", "android": "https://dc.lft.to/lastmile_qr_scan"}, "lat": 38.895539666666664, "is_disabled": 0, "lon": -77.02206466666667, "name": "e957861ee453cf4e39fe68b1533dac4a", "type": "electric_scooter", "bike_id": "e957861ee453cf4e39fe68b1533dac4a", "is_reserved": 0}, {"rental_uris": {"ios": "https://dc.lft.to/lastmile_qr_scan", "android": "https://dc.lft.to/lastmile_qr_scan"}, "lat": 38.922083666666666, "is_disabled": 0, "lon": -76.991878, "name": "d03a7a53b33a4cdfb22572efbc2065cb", "type": "electric_scooter", "bike_id": "d03a7a53b33a4cdfb22572efbc2065cb", "is_reserved": 0}, {"rental_uris": {"ios": "https://dc.lft.to/lastmile_qr_scan", "android": "https://dc.lft.to/lastmile_qr_scan"}, "lat": 38.99258233333333, "is_disabled": 0, "lon": -77.02844316666666, "name": "1a50d4375db4a46b60ea98f423e158ad", "type": "electric_scooter", "bike_id": "1a50d4375db4a46b60ea98f423e158ad", "is_reserved": 0}, {"rental_uris": {"ios": "https://dc.lft.to/lastmile_qr_scan", "android": "https://dc.lft.to/lastmile_qr_scan"}, "lat": 38.94790583333333, "is_disabled": 0, "lon": -77.0599745, "name": "059608039af329e0328dee99e192766e", "type": "electric_scooter", "bike_id": "059608039af329e0328dee99e192766e", "is_reserved": 0}, {"rental_uris": {"ios": "https://dc.lft.to/lastmile_qr_scan", "android": "https://dc.lft.to/lastmile_qr_scan"}, "lat": 38.90774716666667, "is_disabled": 0, "lon": -76.99718866666667, "name": "7aa68de01f88ce4c88a4c43bf0a41af1", "type": "electric_scooter", "bike_id": "7aa68de01f88ce4c88a4c43bf0a41af1", "is_reserved": 0}, {"rental_uris": {"ios": "https://dc.lft.to/lastmile_qr_scan", "android": "https://dc.lft.to/lastmile_qr_scan"}, "lat": 38.93344116666667, "is_disabled": 0, "lon": -77.02556533333333, "name": "8e825fda8e823168e94c3e0ec7e2d9a5", "type": "electric_scooter", "bike_id": "8e825fda8e823168e94c3e0ec7e2d9a5", "is_reserved": 0}, {"rental_uris": {"ios": "https://dc.lft.to/lastmile_qr_scan", "android": "https://dc.lft.to/lastmile_qr_scan"}, "lat": 38.891936333333334, "is_disabled": 0, "lon": -77.02365433333334, "name": "c6122a19ae16f20cc6dfda75539655f6", "type": "electric_scooter", "bike_id": "c6122a19ae16f20cc6dfda75539655f6", "is_reserved": 0}, {"rental_uris": {"ios": "https://dc.lft.to/lastmile_qr_scan", "android": "https://dc.lft.to/lastmile_qr_scan"}, "lat": 38.92396266666667, "is_disabled": 0, "lon": -77.03898016666666, "name": "a48737f69d0066d678c32ed75ba0b6e8", "type": "electric_scooter", "bike_id": "a48737f69d0066d678c32ed75ba0b6e8", "is_reserved": 0}, {"rental_uris": {"ios": "https://dc.lft.to/lastmile_qr_scan", "android": "https://dc.lft.to/lastmile_qr_scan"}, "lat": 38.927670666666664, "is_disabled": 0, "lon": -77.02986416666667, "name": "1db180e8ca304426d81b9de8eda89dc4", "type": "electric_scooter", "bike_id": "1db180e8ca304426d81b9de8eda89dc4", "is_reserved": 0}, {"rental_uris": {"ios": "https://dc.lft.to/lastmile_qr_scan", "android": "https://dc.lft.to/lastmile_qr_scan"}, "lat": 38.9031025, "is_disabled": 0, "lon": -77.039632, "name": "6dcc82f0ef47f67813a26cd5583ecc13", "type": "electric_scooter", "bike_id": "6dcc82f0ef47f67813a26cd5583ecc13", "is_reserved": 0}, {"rental_uris": {"ios": "https://dc.lft.to/lastmile_qr_scan", "android": "https://dc.lft.to/lastmile_qr_scan"}, "lat": 38.86816066666667, "is_disabled": 0, "lon": -76.9754455, "name": "62798228a71ed18195ed9f72399cd5a9", "type": "electric_scooter", "bike_id": "62798228a71ed18195ed9f72399cd5a9", "is_reserved": 0}, {"rental_uris": {"ios": "https://dc.lft.to/lastmile_qr_scan", "android": "https://dc.lft.to/lastmile_qr_scan"}, "lat": 38.896488833333336, "is_disabled": 0, "lon": -77.03337966666666, "name": "3ecbcf2907abda34e607088700cbb9b8", "type": "electric_scooter", "bike_id": "3ecbcf2907abda34e607088700cbb9b8", "is_reserved": 0}, {"rental_uris": {"ios": "https://dc.lft.to/lastmile_qr_scan", "android": "https://dc.lft.to/lastmile_qr_scan"}, "lat": 38.92692016666667, "is_disabled": 0, "lon": -76.958857, "name": "3f5a492c8b923d7fc924f1d334f98587", "type": "electric_bike", "bike_id": "3f5a492c8b923d7fc924f1d334f98587", "is_reserved": 0}, {"rental_uris": {"ios": "https://dc.lft.to/lastmile_qr_scan", "android": "https://dc.lft.to/lastmile_qr_scan"}, "lat": 38.91056483333333, "is_disabled": 0, "lon": -77.14022966666667, "name": "6407ad00d082eea70c4c5ebe8adc7e96", "type": "electric_bike", "bike_id": "6407ad00d082eea70c4c5ebe8adc7e96", "is_reserved": 0}, {"rental_uris": {"ios": "https://dc.lft.to/lastmile_qr_scan", "android": "https://dc.lft.to/lastmile_qr_scan"}, "lat": 39.04419133333333, "is_disabled": 0, "lon": -77.10502666666666, "name": "6246829b554b8f00e038ff1f87936b76", "type": "electric_bike", "bike_id": "6246829b554b8f00e038ff1f87936b76", "is_reserved": 0}, {"rental_uris": {"ios": "https://dc.lft.to/lastmile_qr_scan", "android": "https://dc.lft.to/lastmile_qr_scan"}, "lat": 38.87408516666667, "is_disabled": 0, "lon": -76.96772466666667, "name": "59d90fb9ad84a91d8fa06b0263081b83", "type": "electric_bike", "bike_id": "59d90fb9ad84a91d8fa06b0263081b83", "is_reserved": 0}, {"rental_uris": {"ios": "https://dc.lft.to/lastmile_qr_scan", "android": "https://dc.lft.to/lastmile_qr_scan"}, "lat": 38.9949405, "is_disabled": 0, "lon": -77.02714333333333, "name": "e345f6b5b96af5adeb3c4984581e211b", "type": "electric_scooter", "bike_id": "e345f6b5b96af5adeb3c4984581e211b", "is_reserved": 0}, {"rental_uris": {"ios": "https://dc.lft.to/lastmile_qr_scan", "android": "https://dc.lft.to/lastmile_qr_scan"}, "lat": 38.956447833333335, "is_disabled": 0, "lon": -76.99665333333333, "name": "60c57860b555c095ba63c0c51d335dab", "type": "electric_bike", "bike_id": "60c57860b555c095ba63c0c51d335dab", "is_reserved": 0}, {"rental_uris": {"ios": "https://dc.lft.to/lastmile_qr_scan", "android": "https://dc.lft.to/lastmile_qr_scan"}, "lat": 38.90522933333333, "is_disabled": 0, "lon": -77.0286365, "name": "92b7d1c579c2d6bab881cd2a4f97a7b8", "type": "electric_scooter", "bike_id": "92b7d1c579c2d6bab881cd2a4f97a7b8", "is_reserved": 0}, {"rental_uris": {"ios": "https://dc.lft.to/lastmile_qr_scan", "android": "https://dc.lft.to/lastmile_qr_scan"}, "lat": 38.900193333333334, "is_disabled": 0, "lon": -77.02600983333333, "name": "6814007ee926d4ac0544cff7e113696b", "type": "electric_scooter", "bike_id": "6814007ee926d4ac0544cff7e113696b", "is_reserved": 0}, {"rental_uris": {"ios": "https://dc.lft.to/lastmile_qr_scan", "android": "https://dc.lft.to/lastmile_qr_scan"}, "lat": 38.901107833333334, "is_disabled": 0, "lon": -77.02523116666667, "name": "d1644cddd1b737e15aba74e7521fc00f", "type": "electric_bike", "bike_id": "d1644cddd1b737e15aba74e7521fc00f", "is_reserved": 0}, {"rental_uris": {"ios": "https://dc.lft.to/lastmile_qr_scan", "android": "https://dc.lft.to/lastmile_qr_scan"}, "lat": 38.89230033333333, "is_disabled": 0, "lon": -77.05008466666666, "name": "b2ed930cff3cc16d286ecaa7c8d620ab", "type": "electric_scooter", "bike_id": "b2ed930cff3cc16d286ecaa7c8d620ab", "is_reserved": 0}, {"rental_uris": {"ios": "https://dc.lft.to/lastmile_qr_scan", "android": "https://dc.lft.to/lastmile_qr_scan"}, "lat": 38.92334566666667, "is_disabled": 0, "lon": -77.0567965, "name": "b0b7f5fef9ef0a25ee5e5af02e58ffab", "type": "electric_scooter", "bike_id": "b0b7f5fef9ef0a25ee5e5af02e58ffab", "is_reserved": 0}, {"rental_uris": {"ios": "https://dc.lft.to/lastmile_qr_scan", "android": "https://dc.lft.to/lastmile_qr_scan"}, "lat": 38.950507333333334, "is_disabled": 0, "lon": -77.05766433333334, "name": "6e2af723e81cc8d07ee4c4c46f5e24b1", "type": "electric_scooter", "bike_id": "6e2af723e81cc8d07ee4c4c46f5e24b1", "is_reserved": 0}, {"rental_uris": {"ios": "https://dc.lft.to/lastmile_qr_scan", "android": "https://dc.lft.to/lastmile_qr_scan"}, "lat": 38.91027833333333, "is_disabled": 0, "lon": -77.0380285, "name": "a12296558cb2788ed665ab239c0445dc", "type": "electric_scooter", "bike_id": "a12296558cb2788ed665ab239c0445dc", "is_reserved": 0}, {"rental_uris": {"ios": "https://dc.lft.to/lastmile_qr_scan", "android": "https://dc.lft.to/lastmile_qr_scan"}, "lat": 38.9418055, "is_disabled": 0, "lon": -77.03259983333334, "name": "bf23dd4ec124e9cb0de4e984e4d7cd15", "type": "electric_scooter", "bike_id": "bf23dd4ec124e9cb0de4e984e4d7cd15", "is_reserved": 0}, {"rental_uris": {"ios": "https://dc.lft.to/lastmile_qr_scan", "android": "https://dc.lft.to/lastmile_qr_scan"}, "lat": 38.85762883333334, "is_disabled": 0, "lon": -76.9929145, "name": "0e10e823bebd6e7377362455e933021e", "type": "electric_bike", "bike_id": "0e10e823bebd6e7377362455e933021e", "is_reserved": 0}, {"rental_uris": {"ios": "https://dc.lft.to/lastmile_qr_scan", "android": "https://dc.lft.to/lastmile_qr_scan"}, "lat": 38.91404766666667, "is_disabled": 0, "lon": -77.0305175, "name": "e2668f14dc16a4b60036fa88f405ca4e", "type": "electric_scooter", "bike_id": "e2668f14dc16a4b60036fa88f405ca4e", "is_reserved": 0}, {"rental_uris": {"ios": "https://dc.lft.to/lastmile_qr_scan", "android": "https://dc.lft.to/lastmile_qr_scan"}, "lat": 38.91267633333333, "is_disabled": 0, "lon": -77.044977, "name": "dd244bb51eb7c3afa84ef64ebec67b4f", "type": "electric_scooter", "bike_id": "dd244bb51eb7c3afa84ef64ebec67b4f", "is_reserved": 0}, {"rental_uris": {"ios": "https://dc.lft.to/lastmile_qr_scan", "android": "https://dc.lft.to/lastmile_qr_scan"}, "lat": 38.82854283333333, "is_disabled": 0, "lon": -77.09191416666667, "name": "9676b96b31fb0c0c18afe77c8a31adb3", "type": "electric_bike", "bike_id": "9676b96b31fb0c0c18afe77c8a31adb3", "is_reserved": 0}, {"rental_uris": {"ios": "https://dc.lft.to/lastmile_qr_scan", "android": "https://dc.lft.to/lastmile_qr_scan"}, "lat": 38.873169, "is_disabled": 0, "lon": -77.001563, "name": "78308651f4a03efb240940cd5b919f75", "type": "electric_scooter", "bike_id": "78308651f4a03efb240940cd5b919f75", "is_reserved": 0}, {"rental_uris": {"ios": "https://dc.lft.to/lastmile_qr_scan", "android": "https://dc.lft.to/lastmile_qr_scan"}, "lat": 38.874472833333336, "is_disabled": 0, "lon": -76.97156083333333, "name": "44ead2053774ea9fe2f7d0cb794d5a90", "type": "electric_scooter", "bike_id": "44ead2053774ea9fe2f7d0cb794d5a90", "is_reserved": 0}, {"rental_uris": {"ios": "https://dc.lft.to/lastmile_qr_scan", "android": "https://dc.lft.to/lastmile_qr_scan"}, "lat": 38.90634, "is_disabled": 0, "lon": -77.02814883333333, "name": "e90e7e1a4748fcf83a988c9685595098", "type": "electric_scooter", "bike_id": "e90e7e1a4748fcf83a988c9685595098", "is_reserved": 0}, {"rental_uris": {"ios": "https://dc.lft.to/lastmile_qr_scan", "android": "https://dc.lft.to/lastmile_qr_scan"}, "lat": 38.9340885, "is_disabled": 0, "lon": -77.04248283333334, "name": "933c078e5ff399e72f363894dcfe5e3c", "type": "electric_scooter", "bike_id": "933c078e5ff399e72f363894dcfe5e3c", "is_reserved": 0}, {"rental_uris": {"ios": "https://dc.lft.to/lastmile_qr_scan", "android": "https://dc.lft.to/lastmile_qr_scan"}, "lat": 38.900264, "is_disabled": 0, "lon": -77.03174816666667, "name": "bacc33862cd05f4a011dd89a8616dfa5", "type": "electric_scooter", "bike_id": "bacc33862cd05f4a011dd89a8616dfa5", "is_reserved": 0}, {"rental_uris": {"ios": "https://dc.lft.to/lastmile_qr_scan", "android": "https://dc.lft.to/lastmile_qr_scan"}, "lat": 38.90221866666667, "is_disabled": 0, "lon": -77.03203466666666, "name": "87e374460aa3cc35e37e01c1122e4f6e", "type": "electric_scooter", "bike_id": "87e374460aa3cc35e37e01c1122e4f6e", "is_reserved": 0}, {"rental_uris": {"ios": "https://dc.lft.to/lastmile_qr_scan", "android": "https://dc.lft.to/lastmile_qr_scan"}, "lat": 38.9067585, "is_disabled": 0, "lon": -77.0355285, "name": "30b3001bfe90af1cab4e682a9ac7e13d", "type": "electric_bike", "bike_id": "30b3001bfe90af1cab4e682a9ac7e13d", "is_reserved": 0}, {"rental_uris": {"ios": "https://dc.lft.to/lastmile_qr_scan", "android": "https://dc.lft.to/lastmile_qr_scan"}, "lat": 38.9377385, "is_disabled": 0, "lon": -76.9246225, "name": "d9b314904beb0f1d2c25f38cfc5dc2ba", "type": "electric_bike", "bike_id": "d9b314904beb0f1d2c25f38cfc5dc2ba", "is_reserved": 0}, {"rental_uris": {"ios": "https://dc.lft.to/lastmile_qr_scan", "android": "https://dc.lft.to/lastmile_qr_scan"}, "lat": 38.89409966666667, "is_disabled": 0, "lon": -76.923224, "name": "edfbd87dab3f6e3ccf56a58ff4d704cf", "type": "electric_bike", "bike_id": "edfbd87dab3f6e3ccf56a58ff4d704cf", "is_reserved": 0}, {"rental_uris": {"ios": "https://dc.lft.to/lastmile_qr_scan", "android": "https://dc.lft.to/lastmile_qr_scan"}, "lat": 38.98564616666667, "is_disabled": 0, "lon": -77.0402005, "name": "092f3f49be3149c9a04a3ba11e8cf4ed", "type": "electric_bike", "bike_id": "092f3f49be3149c9a04a3ba11e8cf4ed", "is_reserved": 0}, {"rental_uris": {"ios": "https://dc.lft.to/lastmile_qr_scan", "android": "https://dc.lft.to/lastmile_qr_scan"}, "lat": 38.93537, "is_disabled": 0, "lon": -77.05816616666667, "name": "60e6c96353f9b9bd401cff9ab498bf93", "type": "electric_bike", "bike_id": "60e6c96353f9b9bd401cff9ab498bf93", "is_reserved": 0}, {"rental_uris": {"ios": "https://dc.lft.to/lastmile_qr_scan", "android": "https://dc.lft.to/lastmile_qr_scan"}, "lat": 38.871120833333336, "is_disabled": 0, "lon": -77.00748066666667, "name": "ac27467397add56d1093ff6ff63db587", "type": "electric_scooter", "bike_id": "ac27467397add56d1093ff6ff63db587", "is_reserved": 0}, {"rental_uris": {"ios": "https://dc.lft.to/lastmile_qr_scan", "android": "https://dc.lft.to/lastmile_qr_scan"}, "lat": 38.92776416666667, "is_disabled": 0, "lon": -77.02715333333333, "name": "2339b2df16acb1834a7de7915511f717", "type": "electric_scooter", "bike_id": "2339b2df16acb1834a7de7915511f717", "is_reserved": 0}, {"rental_uris": {"ios": "https://dc.lft.to/lastmile_qr_scan", "android": "https://dc.lft.to/lastmile_qr_scan"}, "lat": 38.902591, "is_disabled": 0, "lon": -77.00925416666666, "name": "ac91077cce9cf5435cac0887c93b01ef", "type": "electric_scooter", "bike_id": "ac91077cce9cf5435cac0887c93b01ef", "is_reserved": 0}, {"rental_uris": {"ios": "https://dc.lft.to/lastmile_qr_scan", "android": "https://dc.lft.to/lastmile_qr_scan"}, "lat": 38.91103716666667, "is_disabled": 0, "lon": -77.0416415, "name": "82274a2de2c776a3e6fe5261fb3a44d5", "type": "electric_scooter", "bike_id": "82274a2de2c776a3e6fe5261fb3a44d5", "is_reserved": 0}, {"rental_uris": {"ios": "https://dc.lft.to/lastmile_qr_scan", "android": "https://dc.lft.to/lastmile_qr_scan"}, "lat": 38.904657, "is_disabled": 0, "lon": -77.05914316666667, "name": "5a83827ab88eb1907f9f1c8cff2346d4", "type": "electric_scooter", "bike_id": "5a83827ab88eb1907f9f1c8cff2346d4", "is_reserved": 0}, {"rental_uris": {"ios": "https://dc.lft.to/lastmile_qr_scan", "android": "https://dc.lft.to/lastmile_qr_scan"}, "lat": 38.98748, "is_disabled": 0, "lon": -77.026033, "name": "cffb648b6b7eda97f5e6ccac9a290ae1", "type": "electric_scooter", "bike_id": "cffb648b6b7eda97f5e6ccac9a290ae1", "is_reserved": 0}, {"rental_uris": {"ios": "https://dc.lft.to/lastmile_qr_scan", "android": "https://dc.lft.to/lastmile_qr_scan"}, "lat": 38.9156245, "is_disabled": 0, "lon": -76.99509316666666, "name": "2342509a4f50f66e05d5ae3e8774590c", "type": "electric_scooter", "bike_id": "2342509a4f50f66e05d5ae3e8774590c", "is_reserved": 0}, {"rental_uris": {"ios": "https://dc.lft.to/lastmile_qr_scan", "android": "https://dc.lft.to/lastmile_qr_scan"}, "lat": 39.015667, "is_disabled": 0, "lon": -77.10288083333333, "name": "c317033e49c0b68a75ac3873a5b270a7", "type": "electric_bike", "bike_id": "c317033e49c0b68a75ac3873a5b270a7", "is_reserved": 0}, {"rental_uris": {"ios": "https://dc.lft.to/lastmile_qr_scan", "android": "https://dc.lft.to/lastmile_qr_scan"},