{"displayFieldName":"NAME","fieldAliases":{"NAME":"NAME","LINE":"LINE","ADDRESS":"ADDRESS"},"geometryType":"esriGeometryPoint","spatialReference":{"wkid":4326,"latestWkid":4326},"fields":[{"name":"NAME","type":"esriFieldTypeString","alias":"NAME","length":48},{"name":"LINE","type":"esriFieldTypeString","alias":"LINE","length":50},{"name":"ADDRESS","type":"esriFieldTypeString","alias":"ADDRESS","length":255}],"features":[{"attributes":{"NAME":"DUPONT CIRCLE","LINE":"red","ADDRESS":"1351 19TH ST NW, WASHINGTON, DC 20036"},"geometry":{"x":-77.0433192930102,"y":38.908682886128517}},{"attributes":{"NAME":"BENNING ROAD ELEVATOR","LINE":"blue, silver","ADDRESS":"4500 BENNING ROAD NE, WASHINGTON, DC 20019"},"geometry":{"x":-76.937536947591923,"y":38.890568309186733}},{"attributes":{"NAME":"BROOKLAND | CUA","LINE":"red","ADDRESS":"801 MICHIGAN AVENUE NE, WASHINGTON, DC 20017"},"geometry":{"x":-76.994346043701896,"y":38.933511317795769}},{"attributes":{"NAME":"BROOKLAND | CUA","LINE":"red","ADDRESS":"801 MICHIGAN AVENUE NE, WASHINGTON, DC 20017"},"geometry":{"x":-76.995044660524897,"y":38.933834318598734}},{"attributes":{"NAME":"FORT TOTTEN","LINE":"red, green, yellow","ADDRESS":"550 GALLOWAY STREET NE, WASHINGTON, DC 20011"},"geometry":{"x":-77.00249101483854,"y":38.9526538724948}},{"attributes":{"NAME":"ANACOSTIA","LINE":"green","ADDRESS":"1101 HOWARD ROAD SE, WASHINGTON, DC 20020"},"geometry":{"x":-76.995070066083215,"y":38.862298360324687}},{"attributes":{"NAME":"ANACOSTIA","LINE":"green","ADDRESS":"1101 HOWARD ROAD SE, WASHINGTON, DC 20020"},"geometry":{"x":-76.995466453422495,"y":38.862169452951761}},{"attributes":{"NAME":"CONGRESS HEIGHTS","LINE":"green","ADDRESS":"1290 ALABAMA AVENUE SE, WASHINGTON, DC 20020"},"geometry":{"x":-76.98777759963761,"y":38.845397673862038}},{"attributes":{"NAME":"CONGRESS HEIGHTS","LINE":"green","ADDRESS":"1290 ALABAMA AVENUE SE, WASHINGTON, DC 20020"},"geometry":{"x":-76.987620431353477,"y":38.844654667790962}},{"attributes":{"NAME":"BENNING ROAD","LINE":"blue, silver","ADDRESS":"4500 BENNING ROAD NE, WASHINGTON, DC 20019"},"geometry":{"x":-76.937449257309268,"y":38.890405232585877}},{"attributes":{"NAME":"MINNESOTA AVE","LINE":"orange","ADDRESS":"4000 MINNESOTA AVENUE NE, WASHINGTON, DC 20019"},"geometry":{"x":-76.946927004766025,"y":38.898614876140677}},{"attributes":{"NAME":"MINNESOTA AVE","LINE":"orange","ADDRESS":"4000 MINNESOTA AVENUE NE, WASHINGTON, DC 20019"},"geometry":{"x":-76.946828575133424,"y":38.899576978631913}},{"attributes":{"NAME":"COLUMBIA HEIGHTS ELEVATOR","LINE":"green,yellow","ADDRESS":"3030 14TH STREET NW, WASHINGTON, DC 20009"},"geometry":{"x":-77.032807346806521,"y":38.928564871737713}},{"attributes":{"NAME":"CONGRESS HEIGHTS ELEVATOR","LINE":"green","ADDRESS":"1290 ALABAMA AVENUE SE, WASHINGTON, DC 20020"},"geometry":{"x":-76.987815722156455,"y":38.845124267049563}},{"attributes":{"NAME":"DEANWOOD ELEVATOR","LINE":"orange","ADDRESS":"4720 MINNESOTA AVENUE NE, WASHINGTON, DC 20019"},"geometry":{"x":-76.934838707893363,"y":38.908198191250833}},{"attributes":{"NAME":"FEDERAL CENTER SW ELEVATOR","LINE":"blue, orange, silver","ADDRESS":"401 3RD STREET SW, WASHINGTON, DC 20024"},"geometry":{"x":-77.016037365923523,"y":38.884921979466668}},{"attributes":{"NAME":"MINNESOTA AVE ELEVATOR","LINE":"orange","ADDRESS":"4000 MINNESOTA AVENUE NE, WASHINGTON, DC 20019"},"geometry":{"x":-76.946697588976079,"y":38.898814158316419}},{"attributes":{"NAME":"NAVY YARD-BALLPARK ELEVATOR","LINE":"green","ADDRESS":"1155 NEW JERSEY AVENUE SE, WASHINGTON, DC 20003"},"geometry":{"x":-77.004719783532224,"y":38.876625167942748}},{"attributes":{"NAME":"SHAW | HOWARD UNIV ELEVATOR","LINE":"green,yellow","ADDRESS":"1801 7TH ST NW, WASHINGTON, DC 20001"},"geometry":{"x":-77.021632340624521,"y":38.914229603283424}},{"attributes":{"NAME":"U ST | AFRICAN AMER CIVIL WAR MEM | CARDOZO ELEV","LINE":"green,yellow","ADDRESS":"1240 U STREET NW, WASHINGTON, DC 20009"},"geometry":{"x":-77.02892220261721,"y":38.916785183480442}},{"attributes":{"NAME":"WATERFRONT ELEVATOR","LINE":"green","ADDRESS":"399 M STREET SW, WASHINGTON, DC 20024"},"geometry":{"x":-77.017359289077589,"y":38.876641474551562}},{"attributes":{"NAME":"GEORGIA AVE | PETWORTH","LINE":"green,yellow","ADDRESS":"3700 GEORGIA AVENUE NW, WASHINGTON, DC 20010"},"geometry":{"x":-77.024108149118007,"y":38.937030738015707}},{"attributes":{"NAME":"GEORGIA AVE | PETWORTH ELEVATOR","LINE":"green,yellow","ADDRESS":"3700 GEORGIA AVENUE NW, WASHINGTON, DC 20010"},"geometry":{"x":-77.024607152449292,"y":38.936780015816787}},{"attributes":{"NAME":"GEORGIA AVE | PETWORTH","LINE":"green,yellow","ADDRESS":"3700 GEORGIA AVENUE NW, WASHINGTON, DC 20010"},"geometry":{"x":-77.02471477373291,"y":38.937128794450508}},{"attributes":{"NAME":"BROOKLAND | CUA ELEVATOR","LINE":"red","ADDRESS":"801 MICHIGAN AVENUE NE, WASHINGTON, DC 20017"},"geometry":{"x":-76.994446090670266,"y":38.933760241749546}},{"attributes":{"NAME":"NOMA | GALLAUDET U | NEW YORK AVE","LINE":"red","ADDRESS":"201 M STREET NE, WASHINGTON, DC  20002"},"geometry":{"x":-77.003828526913537,"y":38.90571764135273}},{"attributes":{"NAME":"JUDICIARY SQUARE NE ELEVATOR","LINE":"red","ADDRESS":"450 F STREET NW, WASHINGTON, DC 20001"},"geometry":{"x":-77.017452500690837,"y":38.896829713881587}},{"attributes":{"NAME":"JUDICIARY SQUARE SW ELEVATOR","LINE":"red","ADDRESS":"450 F STREET NW, WASHINGTON, DC 20001"},"geometry":{"x":-77.017656541061456,"y":38.896653702540398}},{"attributes":{"NAME":"EASTERN MARKET","LINE":"blue, orange, silver","ADDRESS":"725 PENNSYLVANIA AVENUE SE, WASHINGTON, DC 20003"},"geometry":{"x":-76.995815295987583,"y":38.884252866505854}},{"attributes":{"NAME":"METRO CENTER","LINE":"red, blue, orange, silver","ADDRESS":"665 11TH STREET NW, WASHINGTON, DC 20005"},"geometry":{"x":-77.026671892114635,"y":38.898434767506792}},{"attributes":{"NAME":"METRO CENTER","LINE":"red, blue, orange, silver","ADDRESS":"607 13TH STREET NW, WASHINGTON, DC 20005"},"geometry":{"x":-77.029407503991337,"y":38.898440197126405}},{"attributes":{"NAME":"METRO CENTER","LINE":"red, blue, orange, silver","ADDRESS":"701 12TH STREET NW, WASHINGTON, DC 20005"},"geometry":{"x":-77.028233750573847,"y":38.898992232613686}},{"attributes":{"NAME":"EASTERN MARKET ELEVATOR","LINE":"blue, orange, silver","ADDRESS":"725 PENNSYLVANIA AVENUE SE, WASHINGTON, DC 20003"},"geometry":{"x":-76.996040452001253,"y":38.884261123217726}},{"attributes":{"NAME":"MT VERNON SQ | 7TH ST | CONVENTION CENTER","LINE":"green, yellow","ADDRESS":"700 M STREET NW, WASHINGTON, DC 20001"},"geometry":{"x":-77.022149963329852,"y":38.905436073822749}},{"attributes":{"NAME":"MT VERNON SQ | 7TH ST | CONVENTION CENTER ELEV","LINE":"green, yellow","ADDRESS":"700 M STREET NW, WASHINGTON, DC 20001"},"geometry":{"x":-77.022353177244554,"y":38.905522076697778}},{"attributes":{"NAME":"STADIUM | ARMORY","LINE":"blue, orange, silver","ADDRESS":"102 19TH STREET SE, WASHINGTON, DC 20003"},"geometry":{"x":-76.977065187054436,"y":38.888290778402357}},{"attributes":{"NAME":"STADIUM | ARMORY","LINE":"blue, orange, silver","ADDRESS":"290 19TH STREET SE, WASHINGTON, DC 20003"},"geometry":{"x":-76.977045780664568,"y":38.885663092807746}},{"attributes":{"NAME":"STADIUM | ARMORY ELEVATOR","LINE":"blue, orange, silver","ADDRESS":"290 19TH STREET SE, WASHINGTON, DC 20003"},"geometry":{"x":-76.977154106597894,"y":38.885928715526049}},{"attributes":{"NAME":"COLUMBIA HEIGHTS","LINE":"green,yellow","ADDRESS":"3101 14TH STREET NW, WASHINGTON, DC 20009"},"geometry":{"x":-77.032429694346831,"y":38.928876254911451}},{"attributes":{"NAME":"DEANWOOD","LINE":"orange","ADDRESS":"4701 POLK STREET NE, WASHINGTON, DC 20019"},"geometry":{"x":-76.935172477221258,"y":38.908560834027419}},{"attributes":{"NAME":"MT VERNON SQ | 7TH ST | CONVENTION CENTER ELEV","LINE":"green, yellow","ADDRESS":"700 M STREET NW, WASHINGTON, DC 20001"},"geometry":{"x":-77.022127755740243,"y":38.905940997812664}},{"attributes":{"NAME":"FARRAGUT NORTH ELEVATOR","LINE":"red","ADDRESS":"1705 K STREET NW, WASHINGTON, DC 20036"},"geometry":{"x":-77.039319584005369,"y":38.903028252280656}},{"attributes":{"NAME":"TENLEYTOWN | AU ELEVATOR","LINE":"red","ADDRESS":"4501 WISCONSIN AVENUE NW, WASHINGTON, DC 20016"},"geometry":{"x":-77.079274859604595,"y":38.948106253380097}},{"attributes":{"NAME":"DUPONT CIRCLE ELEVATOR","LINE":"red","ADDRESS":"1525 20TH ST NW, WASHINGTON, DC 20036"},"geometry":{"x":-77.044562293343418,"y":38.91079798635505}},{"attributes":{"NAME":"WOODLEY PARK | ZOO | ADAMS MORGAN ELEVATOR","LINE":"red","ADDRESS":"2700 CONNECTICUT AVENUE NW, WASHINGTON, DC 20008"},"geometry":{"x":-77.052876222192879,"y":38.925457070912707}},{"attributes":{"NAME":"VAN NESS | UDC ELEVATOR","LINE":"red","ADDRESS":"4200 CONNECTICUT AVENUE NW, WASHINGTON, DC 20008"},"geometry":{"x":-77.063580987588708,"y":38.943970191406549}},{"attributes":{"NAME":"FRIENDSHIP HEIGHTS ELEVATOR","LINE":"red","ADDRESS":"1 WISCONSIN CIRCLE NW, WASHINGTON, DC 20015"},"geometry":{"x":-77.085202054419383,"y":38.96022611700144}},{"attributes":{"NAME":"METRO CENTER ELEVATOR","LINE":"red, blue, orange, silver","ADDRESS":"701 12TH STREET NW, WASHINGTON, DC 20005"},"geometry":{"x":-77.02791905449196,"y":38.898927194682123}},{"attributes":{"NAME":"MCPHERSON SQUARE ELEVATOR","LINE":"blue, orange, silver","ADDRESS":"1400 I STREET NW, WASHINGTON, DC 20005"},"geometry":{"x":-77.032307889102057,"y":38.901105990329789}},{"attributes":{"NAME":"FARRAGUT WEST ELEVATOR","LINE":"blue, orange, silver","ADDRESS":"900 18TH STREET NW, WASHINGTON, DC 20006"},"geometry":{"x":-77.041895070915317,"y":38.90154779343969}},{"attributes":{"NAME":"FOGGY BOTTOM | GWU ELEVATOR","LINE":"blue, orange, silver","ADDRESS":"2301 I STREET NW, WASHINGTON, DC 20037"},"geometry":{"x":-77.05086199173283,"y":38.900840151958292}},{"attributes":{"NAME":"DEANWOOD","LINE":"orange","ADDRESS":"4720 MINNESOTA AVENUE NE, WASHINGTON, DC 20019"},"geometry":{"x":-76.934722619264576,"y":38.908267505942177}},{"attributes":{"NAME":"ARCHIVES | NAVY MEM | PENN QUARTER","LINE":"green,yellow","ADDRESS":"701 PENNSYLVANIA AVENUE NW, WASHINGTON, DC 20004"},"geometry":{"x":-77.022533283890027,"y":38.893947125880672}},{"attributes":{"NAME":"COLUMBIA HEIGHTS","LINE":"green,yellow","ADDRESS":"3030 14TH STREET NW, WASHINGTON, DC 20009"},"geometry":{"x":-77.033032040432815,"y":38.92861891687906}},{"attributes":{"NAME":"GALLERY PL | CHINATOWN","LINE":"red, green, yellow","ADDRESS":"630 H STREET NW, WASHINGTON, DC 20001"},"geometry":{"x":-77.021655681434339,"y":38.899640054837342}},{"attributes":{"NAME":"GALLERY PL | CHINATOWN","LINE":"red, green, yellow","ADDRESS":"625 9TH STREET NW, WASHINGTON, DC 20001"},"geometry":{"x":-77.023768735240864,"y":38.89805595585414}},{"attributes":{"NAME":"L'ENFANT PLAZA","LINE":"green, yellow, orange, blue, silver","ADDRESS":"600 MARYLAND AVENUE SW, WASHINGTON, DC 20024"},"geometry":{"x":-77.021577494843342,"y":38.886254898940763}},{"attributes":{"NAME":"JUDICIARY SQUARE","LINE":"red","ADDRESS":"450 F STREET NW, WASHINGTON, DC 20001"},"geometry":{"x":-77.017525276719041,"y":38.897059761435088}},{"attributes":{"NAME":"L'ENFANT PLAZA","LINE":"green, yellow, orange, blue, silver","ADDRESS":"800 D STREET SW, WASHINGTON, DC 20024"},"geometry":{"x":-77.023547835154062,"y":38.884457000002186}},{"attributes":{"NAME":"NAVY YARD-BALLPARK","LINE":"green","ADDRESS":"200 M STREET SE, WASHINGTON, DC 20003"},"geometry":{"x":-77.007133287011058,"y":38.876278315014524}},{"attributes":{"NAME":"NAVY YARD-BALLPARK","LINE":"green","ADDRESS":"1155 NEW JERSEY AVENUE SE, WASHINGTON, DC 20003"},"geometry":{"x":-77.00449748290545,"y":38.876676752608489}},{"attributes":{"NAME":"SHAW | HOWARD UNIV","LINE":"green,yellow","ADDRESS":"1701 8TH STREET NW, WASHINGTON, DC 20001"},"geometry":{"x":-77.022598085333811,"y":38.912781330065634}},{"attributes":{"NAME":"SHAW | HOWARD UNIV","LINE":"green,yellow","ADDRESS":"1801 7TH ST NW, WASHINGTON, DC 20001"},"geometry":{"x":-77.021684156213411,"y":38.914505924418229}},{"attributes":{"NAME":"U ST | AFRICAN AMER CIVIL WAR MEM | CARDOZO","LINE":"green,yellow","ADDRESS":"1000 U STREET NW, WASHINGTON, DC 20009"},"geometry":{"x":-77.025975259539607,"y":38.916721291656856}},{"attributes":{"NAME":"WATERFRONT","LINE":"green","ADDRESS":"399 M STREET SW, WASHINGTON, DC 20024"},"geometry":{"x":-77.017538824346133,"y":38.8769897737264}},{"attributes":{"NAME":"FRIENDSHIP HEIGHTS","LINE":"red","ADDRESS":"1 WISCONSIN CIRCLE NW, WASHINGTON, DC 20015"},"geometry":{"x":-77.085402122521359,"y":38.960748048781049}},{"attributes":{"NAME":"UNION STATION","LINE":"red","ADDRESS":"625 1ST STREET NE, WASHINGTON, DC 20002"},"geometry":{"x":-77.007202074090259,"y":38.897492192704625}},{"attributes":{"NAME":"TAKOMA ELEVATOR","LINE":"red","ADDRESS":"327 CEDAR STREET NW, WASHINGTON, DC 20012"},"geometry":{"x":-77.017823974562191,"y":38.975888909228729}},{"attributes":{"NAME":"TAKOMA","LINE":"red","ADDRESS":"327 CEDAR STREET NW, WASHINGTON, DC 20012"},"geometry":{"x":-77.017415567321365,"y":38.975103948491913}},{"attributes":{"NAME":"FRIENDSHIP HEIGHTS","LINE":"red","ADDRESS":"1 WISCONSIN CIRCLE NW, WASHINGTON, DC 20015"},"geometry":{"x":-77.085765329327884,"y":38.960453083843184}},{"attributes":{"NAME":"UNION STATION","LINE":"red","ADDRESS":"701 1ST STREET NE, WASHINGTON, DC 20002"},"geometry":{"x":-77.00722876066969,"y":38.898399522448983}},{"attributes":{"NAME":"POTOMAC AVE","LINE":"blue, orange, silver","ADDRESS":"700 14TH STREET SE, WASHINGTON , DC  20003"},"geometry":{"x":-76.985204958774744,"y":38.880775663087377}},{"attributes":{"NAME":"POTOMAC AVE ELEVATOR","LINE":"blue, orange, silver","ADDRESS":"700 14TH STREET SE, WASHINGTON , DC  20003"},"geometry":{"x":-76.985107975447534,"y":38.881071083750989}},{"attributes":{"NAME":"CAPITOL SOUTH","LINE":"blue, orange, silver","ADDRESS":"355 FIRST STREET SE, WASHINGTON, DC 20003"},"geometry":{"x":-77.006065386963826,"y":38.885672675193973}},{"attributes":{"NAME":"ANACOSTIA","LINE":"green","ADDRESS":"1700 ANACOSTIA DRIVE SE, WASHINGTON, DC 20020"},"geometry":{"x":-76.996022894293233,"y":38.864435982096261}},{"attributes":{"NAME":"GALLERY PL | CHINATOWN","LINE":"red, green, yellow","ADDRESS":"625 7TH STREET NW, WASHINGTON, DC 20001"},"geometry":{"x":-77.021567422353272,"y":38.897544239524471}},{"attributes":{"NAME":"GALLERY PL | CHINATOWN ELEVATOR","LINE":"red, green, yellow","ADDRESS":"625 7TH STREET NW, WASHINGTON, DC 20001"},"geometry":{"x":-77.021734820861468,"y":38.897933539299117}},{"attributes":{"NAME":"MCPHERSON SQUARE","LINE":"blue, orange, silver","ADDRESS":"820 VERMONT ST NW, WASHINGTON, DC 20005"},"geometry":{"x":-77.034952567634676,"y":38.9011372942227}},{"attributes":{"NAME":"METRO CENTER","LINE":"red, blue, orange, silver","ADDRESS":"665 11TH STREET NW, WASHINGTON, DC 20005"},"geometry":{"x":-77.026794045414334,"y":38.898080816151705}},{"attributes":{"NAME":"METRO CENTER","LINE":"red, blue, orange, silver","ADDRESS":"701 12TH STREET NW, WASHINGTON, DC 20005"},"geometry":{"x":-77.027893882010915,"y":38.898526550383636}},{"attributes":{"NAME":"METRO CENTER","LINE":"red, blue, orange, silver","ADDRESS":"1200 F STREET NW, WASHINGTON, DC 20005"},"geometry":{"x":-77.028572360293239,"y":38.897154966543724}},{"attributes":{"NAME":"METRO CENTER","LINE":"red, blue, orange, silver","ADDRESS":"607 13TH STREET NW, WASHINGTON, DC 20005"},"geometry":{"x":-77.029383962952593,"y":38.898033794104819}},{"attributes":{"NAME":"NOMA | GALLAUDET U | NEW YORK AVE","LINE":"red","ADDRESS":"200 FLORIDA AVENUE NE, WASHINGTON, DC  20002"},"geometry":{"x":-77.003430469519884,"y":38.907286966243348}},{"attributes":{"NAME":"RHODE ISLAND AVE | BRENTWOOD","LINE":"red","ADDRESS":"919 RHODE ISLAND AVENUE NE, WASHINGTON, DC 20018"},"geometry":{"x":-76.996074682808384,"y":38.920478494095263}},{"attributes":{"NAME":"SMITHSONIAN","LINE":"blue, orange, silver","ADDRESS":"1200 INDEPENDENCE AVENUE SW, WASHINGTON, DC 20004"},"geometry":{"x":-77.028566457950689,"y":38.887383714603324}},{"attributes":{"NAME":"L'ENFANT PLAZA","LINE":"green, yellow, orange, blue, silver","ADDRESS":"400 7TH STREET SW, WASHINGTON, DC 20024"},"geometry":{"x":-77.020870648151984,"y":38.884490257976957}},{"attributes":{"NAME":"U ST | AFRICAN AMER CIVIL WAR MEM | CARDOZO","LINE":"green,yellow","ADDRESS":"1240 U STREET NW, WASHINGTON, DC 20009"},"geometry":{"x":-77.029198356272758,"y":38.916830742005764}},{"attributes":{"NAME":"JUDICIARY SQUARE","LINE":"red","ADDRESS":"435 4TH STREET NW, WASHINGTON, DC 20001"},"geometry":{"x":-77.015987031673106,"y":38.895321817776306}},{"attributes":{"NAME":"CAPITOL SOUTH ELEVATOR","LINE":"blue, orange, silver","ADDRESS":"355 FIRST STREET SE, WASHINGTON, DC 20003"},"geometry":{"x":-77.006156411276379,"y":38.885189937618904}},{"attributes":{"NAME":"FARRAGUT NORTH","LINE":"red","ADDRESS":"1705 K STREET NW, WASHINGTON, DC 20036"},"geometry":{"x":-77.039179553620855,"y":38.902781481058817}},{"attributes":{"NAME":"L'ENFANT PLAZA ELEVATOR","LINE":"green, yellow, orange, blue, silver","ADDRESS":"600 MARYLAND AVENUE SW, WASHINGTON, DC 20024"},"geometry":{"x":-77.022100012014604,"y":38.885985398230893}},{"attributes":{"NAME":"SMITHSONIAN","LINE":"blue, orange, silver","ADDRESS":"1201 JEFFERSON DRIVE SW, WASHINGTON, DC 20004"},"geometry":{"x":-77.028437439652123,"y":38.889078278016811}},{"attributes":{"NAME":"SMITHSONIAN ELEVATOR","LINE":"blue, orange, silver","ADDRESS":"1200 INDEPENDENCE AVENUE SW, WASHINGTON, DC 20004"},"geometry":{"x":-77.028535901562222,"y":38.88775696349029}},{"attributes":{"NAME":"TENLEYTOWN | AU","LINE":"red","ADDRESS":"4501 WISCONSIN AVENUE NW, WASHINGTON, DC 20016"},"geometry":{"x":-77.079363388412318,"y":38.948085117870853}},{"attributes":{"NAME":"TENLEYTOWN | AU","LINE":"red","ADDRESS":"4501 WISCONSIN AVENUE NW, WASHINGTON, DC 20016"},"geometry":{"x":-77.080171145636157,"y":38.948316786715488}},{"attributes":{"NAME":"VAN NESS | UDC","LINE":"red","ADDRESS":"4200 CONNECTICUT AVENUE NW, WASHINGTON, DC 20008"},"geometry":{"x":-77.063574350587999,"y":38.944630821217473}},{"attributes":{"NAME":"WOODLEY PARK | ZOO | ADAMS MORGAN","LINE":"red","ADDRESS":"2700 CONNECTICUT AVENUE NW, WASHINGTON, DC 20008"},"geometry":{"x":-77.052365292724488,"y":38.924468114176271}},{"attributes":{"NAME":"VAN NESS | UDC","LINE":"red","ADDRESS":"4200 CONNECTICUT AVENUE NW, WASHINGTON, DC 20008"},"geometry":{"x":-77.06403252795225,"y":38.944539370101921}},{"attributes":{"NAME":"CLEVELAND PARK","LINE":"red","ADDRESS":"3516 CONNECTICUT AVENUE NW, WASHINGTON, DC 20008"},"geometry":{"x":-77.059006889352034,"y":38.936145516843808}},{"attributes":{"NAME":"FRIENDSHIP HEIGHTS ELEVATOR","LINE":"red","ADDRESS":"5250 WISCONSIN AVENUE NW, WASHINGTON, DC 20015"},"geometry":{"x":-77.085014412358063,"y":38.958515402482462}},{"attributes":{"NAME":"MCPHERSON SQUARE","LINE":"blue, orange, silver","ADDRESS":"1400 I STREET NW, WASHINGTON, DC 20005"},"geometry":{"x":-77.032227529722633,"y":38.900922323074035}},{"attributes":{"NAME":"FEDERAL TRIANGLE ELEVATOR","LINE":"blue, orange, silver","ADDRESS":"302 12TH STREET NW, WASHINGTON, DC 20004"},"geometry":{"x":-77.028315817087801,"y":38.893777401108075}},{"attributes":{"NAME":"FEDERAL TRIANGLE","LINE":"blue, orange, silver","ADDRESS":"302 12TH STREET NW, WASHINGTON, DC 20004"},"geometry":{"x":-77.028715367432767,"y":38.893834478005601}},{"attributes":{"NAME":"CLEVELAND PARK","LINE":"red","ADDRESS":"3599 CONNECTICUT AVENUE NW, WASHINGTON, DC 20008"},"geometry":{"x":-77.058537425600349,"y":38.935984684467499}},{"attributes":{"NAME":"CLEVELAND PARK ELEVATOR","LINE":"red","ADDRESS":"3599 CONNECTICUT AVENUE NW, WASHINGTON, DC 20008"},"geometry":{"x":-77.058437113427345,"y":38.935776981251436}},{"attributes":{"NAME":"DUPONT CIRCLE","LINE":"red","ADDRESS":"1525 20TH ST NW, WASHINGTON, DC 20036"},"geometry":{"x":-77.044725726556877,"y":38.911005802132536}},{"attributes":{"NAME":"FARRAGUT WEST","LINE":"blue, orange, silver","ADDRESS":"837 17TH STREET NW, WASHINGTON, DC 20006"},"geometry":{"x":-77.039169088449924,"y":38.901176673755259}},{"attributes":{"NAME":"FARRAGUT WEST","LINE":"blue, orange, silver","ADDRESS":"900 18TH STREET NW, WASHINGTON, DC 20006"},"geometry":{"x":-77.041970417896607,"y":38.901629731197445}},{"attributes":{"NAME":"FEDERAL CENTER SW","LINE":"blue, orange, silver","ADDRESS":"401 3RD STREET SW, WASHINGTON, DC 20024"},"geometry":{"x":-77.015377327544513,"y":38.884882182493321}},{"attributes":{"NAME":"FARRAGUT NORTH","LINE":"red","ADDRESS":"1720 L STREET NW, WASHINGTON, DC 20036"},"geometry":{"x":-77.040130222461812,"y":38.903589847485513}},{"attributes":{"NAME":"FARRAGUT NORTH","LINE":"red","ADDRESS":"1717 L STREET NW, WASHINGTON, DC 20036"},"geometry":{"x":-77.039833846434419,"y":38.903930455730929}},{"attributes":{"NAME":"ARCHIVES | NAVY MEM | PENN QUARTER ELEVATOR","LINE":"green,yellow","ADDRESS":"701 PENNSYLVANIA AVENUE NW, WASHINGTON, DC 20004"},"geometry":{"x":-77.022077966740525,"y":38.893886646179787}},{"attributes":{"NAME":"FOGGY BOTTOM | GWU","LINE":"blue, orange, silver","ADDRESS":"2301 I STREET NW, WASHINGTON, DC 20037"},"geometry":{"x":-77.050464745995725,"y":38.900902890115169}}]}