{"objectIdFieldName":"OBJECTID","uniqueIdField":{"name":"OBJECTID","isSystemMaintained":true},"globalIdFieldName":"GlobalID","geometryType":"esriGeometryPoint","spatialReference":{"wkid":4326,"latestWkid":4326},"fields":[{"name":"LOCATION","type":"esriFieldTypeString","alias":"Location Name","sqlType":"sqlTypeOther","length":125,"domain":null,"defaultValue":null},{"name":"StAddr","type":"esriFieldTypeString","alias":"Address","sqlType":"sqlTypeOther","length":120,"domain":null,"defaultValue":null},{"name":"USER_VOTING_SPACE","type":"esriFieldTypeString","alias":"Voting Space","sqlType":"sqlTypeOther","length":8000,"domain":null,"defaultValue":null},{"name":"STATUS","type":"esriFieldTypeString","alias":"Operating Status","sqlType":"sqlTypeOther","length":100,"domain":{"type":"codedValue","name":"General 2020 Election Vote Centers_STATUS_7e8479f5-bdf6-489f-8123-b68449c20eea","codedValues":[{"name":"Active","code":"Active"},{"name":"Removed","code":"Removed"}]}},{"name":"HOURS","type":"esriFieldTypeString","alias":"Hours","sqlType":"sqlTypeOther","length":256,"domain":{"type":"codedValue","name":"General 2020 Election Vote Centers_HOURS_87f7a085-de49-44c9-8ea7-e16e9747d94f","codedValues":[{"name":"7:00 AM to 8:00 PM","code":"7:00 AM to 8:00 PM"}]},"defaultValue":null}],"features":[{"attributes":{"LOCATION":"WALKER-JONES EDUCATION CAMPUS","StAddr":"1125 NEW JERSEY AVENUE NW","USER_VOTING_SPACE":"Gymnasium","STATUS":"Active","HOURS":"7:00 AM to 8:00 PM"},"geometry":{"x":-77.0139179833547,"y":38.904199432583411}},{"attributes":{"LOCATION":"THE SCHOOL WITHOUT WALLS HIGH SCHOOL","StAddr":"2130 G STREET NW","USER_VOTING_SPACE":"Multi Purpose Room","STATUS":"Active","HOURS":"7:00 AM to 8:00 PM"},"geometry":{"x":-77.048188758301251,"y":38.898131571547715}},{"attributes":{"LOCATION":"SCHOOL WITHOUT WALLS @ FRANCIS STEVENS","StAddr":"2425 N STREET NW","USER_VOTING_SPACE":"Auditorium","STATUS":"Active","HOURS":"7:00 AM to 8:00 PM"},"geometry":{"x":-77.05232330130768,"y":38.907476953221519}},{"attributes":{"LOCATION":"DUKE ELLINGTON HIGH SCHOOL","StAddr":"3500 R STREET NW","USER_VOTING_SPACE":"Gallery","STATUS":"Active","HOURS":"7:00 AM to 8:00 PM"},"geometry":{"x":-77.070478848275982,"y":38.913158436555761}},{"attributes":{"LOCATION":"PALISADES RECREATION CENTER","StAddr":"5200 SHERIER PLACE NW","USER_VOTING_SPACE":"Gymnasium","STATUS":"Active","HOURS":"7:00 AM to 8:00 PM"},"geometry":{"x":-77.104576443989231,"y":38.924562848723745}},{"attributes":{"LOCATION":"HORACE MANN ELEMENTARY SCHOOL","StAddr":"4430 NEWARK STREET NW","USER_VOTING_SPACE":"Multi-Purpose Room","STATUS":"Active","HOURS":"7:00 AM to 8:00 PM"},"geometry":{"x":-77.087828498354071,"y":38.934299760352459}},{"attributes":{"LOCATION":"GUY MASON RECREATION CENTER","StAddr":"3600 CALVERT STREET NW","USER_VOTING_SPACE":"Lounge Area","STATUS":"Active","HOURS":"7:00 AM to 8:00 PM"},"geometry":{"x":-77.071200526657336,"y":38.922158045451027}},{"attributes":{"LOCATION":"KENNEDY RECREATION CENTER\r\n","StAddr":"1401 7TH STREET NW","USER_VOTING_SPACE":"Gymnasium","STATUS":"Active","HOURS":"7:00 AM to 8:00 PM"},"geometry":{"x":-77.021530207078413,"y":38.9089709937087}},{"attributes":{"LOCATION":"WASHINGTON METROPOLITAN HIGH SCHOOL","StAddr":"300 BRYANT STREET NW","USER_VOTING_SPACE":"Auditorium","STATUS":"Active","HOURS":"7:00 AM to 8:00 PM"},"geometry":{"x":-77.015583291767882,"y":38.920437926792054}},{"attributes":{"LOCATION":"CAPITOL HILL MONTESSORI @ MEYER SCHOOL","StAddr":"2501 11TH STREET NW","USER_VOTING_SPACE":"Auditorium","STATUS":"Active","HOURS":"7:00 AM to 8:00 PM"},"geometry":{"x":-77.0265948082468,"y":38.922833686399585}},{"attributes":{"LOCATION":"RITA BRIGHT COMMUNITY CENTER","StAddr":"2500 14TH STREET NW","USER_VOTING_SPACE":"Gymnasium","STATUS":"Active","HOURS":"7:00 AM to 8:00 PM"},"geometry":{"x":-77.032364413947022,"y":38.922006526750209}},{"attributes":{"LOCATION":"MARIE REED ELEMENTARY SCHOOL","StAddr":"2201 18TH STREET NW","USER_VOTING_SPACE":"Cafeteria","STATUS":"Active","HOURS":"7:00 AM to 8:00 PM"},"geometry":{"x":-77.040781618876338,"y":38.919180807473495}},{"attributes":{"LOCATION":"OYSTER BILINGUAL SCHOOL","StAddr":"2801 CALVERT STREET NW","USER_VOTING_SPACE":"Gymnasium","STATUS":"Active","HOURS":"7:00 AM to 8:00 PM"},"geometry":{"x":-77.057205666943,"y":38.923603280615687}},{"attributes":{"LOCATION":"CLEVELAND PARK LIBRARY","StAddr":"3310 CONNECTICUT AVENUE NW","USER_VOTING_SPACE":"Multi-Purpose Room","STATUS":"Active","HOURS":"7:00 AM to 8:00 PM"},"geometry":{"x":-77.057844888210028,"y":38.933823259231858}},{"attributes":{"LOCATION":"JANNEY ELEMENTARY SCHOOL","StAddr":"4130 ALBEMARLE STREET NW","USER_VOTING_SPACE":"Multi-Purpose Room","STATUS":"Active","HOURS":"7:00 AM to 8:00 PM"},"geometry":{"x":-77.0809971299574,"y":38.947557878648496}},{"attributes":{"LOCATION":"MURCH ELEMENTARY SCHOOL","StAddr":"4810 36TH STREET NW","USER_VOTING_SPACE":"Gymnasium","STATUS":"Active","HOURS":"7:00 AM to 8:00 PM"},"geometry":{"x":-77.070081510546558,"y":38.952940984923387}},{"attributes":{"LOCATION":"H.D. COOKE ELEMENTARY SCHOOL","StAddr":"2525 17TH STREET NW","USER_VOTING_SPACE":"Multi-Purpose Room","STATUS":"Active","HOURS":"7:00 AM to 8:00 PM"},"geometry":{"x":-77.0385409845107,"y":38.924007653489205}},{"attributes":{"LOCATION":"COLUMBIA HEIGHTS EDUCATION CAMPUS","StAddr":"3101 16TH STREET NW","USER_VOTING_SPACE":"Auditorium","STATUS":"Active","HOURS":"7:00 AM to 8:00 PM"},"geometry":{"x":-77.0355601823205,"y":38.929344585043438}},{"attributes":{"LOCATION":"BANCROFT ELEMENTARY SCHOOL","StAddr":"1755 NEWTON STREET NW","USER_VOTING_SPACE":"Gymnasium","STATUS":"Active","HOURS":"7:00 AM to 8:00 PM"},"geometry":{"x":-77.040555745183909,"y":38.9343258150664}},{"attributes":{"LOCATION":"M.P.D. R.O.C. NORTH","StAddr":"801 SHEPHERD STREET NW","USER_VOTING_SPACE":"Gymnasium","STATUS":"Active","HOURS":"7:00 AM to 8:00 PM"},"geometry":{"x":-77.023812844872609,"y":38.940053398968644}},{"attributes":{"LOCATION":"POWELL ELEMENTARY SCHOOL","StAddr":"1350 UPSHUR STREET NW","USER_VOTING_SPACE":"Multi-Purpose Room","STATUS":"Active","HOURS":"7:00 AM to 8:00 PM"},"geometry":{"x":-77.0314001274897,"y":38.941631481277561}},{"attributes":{"LOCATION":"RAYMOND RECREATION CENTER","StAddr":"3725 10TH STREET NW","USER_VOTING_SPACE":"Gymnasium","STATUS":"Active","HOURS":"7:00 AM to 8:00 PM"},"geometry":{"x":-77.026636220438633,"y":38.936439471650857}},{"attributes":{"LOCATION":"CHEVY CHASE COMMUNITY CENTER","StAddr":"5601 CONNECTICUT AVENUE NW","USER_VOTING_SPACE":"Auditorium","STATUS":"Active","HOURS":"7:00 AM to 8:00 PM"},"geometry":{"x":-77.075110921293771,"y":38.965166216621959}},{"attributes":{"LOCATION":"LAFAYETTE ELEMENTARY SCHOOL","StAddr":"5701 BROAD BRANCH ROAD NW","USER_VOTING_SPACE":"Multi-Purpose Room","STATUS":"Active","HOURS":"7:00 AM to 8:00 PM"},"geometry":{"x":-77.068039425170468,"y":38.966635016555323}},{"attributes":{"LOCATION":"BARNARD ELEMENTARY SCHOOL","StAddr":"430 DECATUR STREET NW","USER_VOTING_SPACE":"Auditorium","STATUS":"Active","HOURS":"7:00 AM to 8:00 PM"},"geometry":{"x":-77.017779363379162,"y":38.948238410750037}},{"attributes":{"LOCATION":"SHEPHERD ELEMENTARY SCHOOL","StAddr":"7800 14TH STREET NW","USER_VOTING_SPACE":"Auditorium","STATUS":"Active","HOURS":"7:00 AM to 8:00 PM"},"geometry":{"x":-77.033974824804062,"y":38.984690029716852}},{"attributes":{"LOCATION":"TAKOMA EDUCATION CAMPUS","StAddr":"7010 PINEY BRANCH ROAD NW","USER_VOTING_SPACE":"Gymnasium","STATUS":"Active","HOURS":"7:00 AM to 8:00 PM"},"geometry":{"x":-77.022797214381484,"y":38.975050340766174}},{"attributes":{"LOCATION":"LAMOND RECREATION CENTER","StAddr":"20 TUCKERMAN STREET NE","USER_VOTING_SPACE":"Gymnasium","STATUS":"Active","HOURS":"7:00 AM to 8:00 PM"},"geometry":{"x":-77.008239974437231,"y":38.967735062162909}},{"attributes":{"LOCATION":"LASALLE-BACKUS EDUCATION CAMPUS","StAddr":"501 RIGGS ROAD NE","USER_VOTING_SPACE":"Auditorium","STATUS":"Active","HOURS":"7:00 AM to 8:00 PM"},"geometry":{"x":-76.999884827090469,"y":38.959979609350128}},{"attributes":{"LOCATION":"UDC COMMUNITY COLLEGE. @ BACKUS","StAddr":"5171 SOUTH DAKOTA AVENUE NE","USER_VOTING_SPACE":"Multi-Purpose Room","STATUS":"Active","HOURS":"7:00 AM to 8:00 PM"},"geometry":{"x":-76.9972696719846,"y":38.95334832273155}},{"attributes":{"LOCATION":"BURROUGHS ELEMENTARY SCHOOL","StAddr":"1820 MONROE STREET NE","USER_VOTING_SPACE":"Multi-Purpose Room","STATUS":"Active","HOURS":"7:00 AM to 8:00 PM"},"geometry":{"x":-76.978458643505647,"y":38.93351011947626}},{"attributes":{"LOCATION":"NOYES EDUCATION CAMPUS","StAddr":"2725 10TH STREET NE","USER_VOTING_SPACE":"Auditorium","STATUS":"Active","HOURS":"7:00 AM to 8:00 PM"},"geometry":{"x":-76.991845162489042,"y":38.925185438371784}},{"attributes":{"LOCATION":"McKINLEY TECHNOLOGY HIGH SCHOOL","StAddr":"151 T STREET NE","USER_VOTING_SPACE":"Gymnasium","STATUS":"Active","HOURS":"7:00 AM to 8:00 PM"},"geometry":{"x":-77.004330759856643,"y":38.914934797585644}},{"attributes":{"LOCATION":"JOSEPH H. COLE RECREATION CENTER","StAddr":"1299 NEAL STREET NE","USER_VOTING_SPACE":"Community Room","STATUS":"Active","HOURS":"7:00 AM to 8:00 PM"},"geometry":{"x":-76.988503046740419,"y":38.904125197279988}},{"attributes":{"LOCATION":"TRINIDAD RECREATION CENTER","StAddr":"1310 CHILDRESS STREET NE","USER_VOTING_SPACE":"Gymnasium","STATUS":"Active","HOURS":"7:00 AM to 8:00 PM"},"geometry":{"x":-76.9827443932757,"y":38.906448193136022}},{"attributes":{"LOCATION":"MINER ELEMENTARY SCHOOL","StAddr":"601 15TH STREET NE","USER_VOTING_SPACE":"Gymnasium","STATUS":"Active","HOURS":"7:00 AM to 8:00 PM"},"geometry":{"x":-76.9827322863986,"y":38.897439114501175}},{"attributes":{"LOCATION":"BALD EAGLE RECREATION CENTER","StAddr":"100 JOLIET STREET SW","USER_VOTING_SPACE":"Gymnasium","STATUS":"Active","HOURS":"7:00 AM to 8:00 PM"},"geometry":{"x":-77.010164007618783,"y":38.818897657092243}},{"attributes":{"LOCATION":"J.O. WILSON ELEMENTARY SCHOOL","StAddr":"660 K STREET NE","USER_VOTING_SPACE":"Multi-Purpose Room/Community Room","STATUS":"Active","HOURS":"7:00 AM to 8:00 PM"},"geometry":{"x":-76.996591310130228,"y":38.902765452662848}},{"attributes":{"LOCATION":"STUART-HOBSON MIDDLE SCHOOL","StAddr":"410 E STREET NE","USER_VOTING_SPACE":"Gymnasium","STATUS":"Active","HOURS":"7:00 AM to 8:00 PM"},"geometry":{"x":-77.000006671003874,"y":38.896305157337558}},{"attributes":{"LOCATION":"EASTERN MARKET","StAddr":"225 7TH STREET SE","USER_VOTING_SPACE":"North Hall","STATUS":"Active","HOURS":"7:00 AM to 8:00 PM"},"geometry":{"x":-76.996470711661985,"y":38.886420576624616}},{"attributes":{"LOCATION":"PAYNE ELEMENTARY SCHOOL ","StAddr":"1445 C STREET SE","USER_VOTING_SPACE":"Multi-Purpose Room","STATUS":"Active","HOURS":"7:00 AM to 8:00 PM"},"geometry":{"x":-76.984986005957325,"y":38.885178129825192}},{"attributes":{"LOCATION":"WATKINS ELEMENTARY SCHOOL","StAddr":"420 12TH STREET SE","USER_VOTING_SPACE":"Multi-Purpose Room","STATUS":"Active","HOURS":"7:00 AM to 8:00 PM"},"geometry":{"x":-76.989861453602074,"y":38.883356438501657}},{"attributes":{"LOCATION":"NATIONALS YOUTH BASKETBALL ACADEMY","StAddr":"3675 ELY PLACE SE","USER_VOTING_SPACE":"Training Space","STATUS":"Active","HOURS":"7:00 AM to 8:00 PM"},"geometry":{"x":-76.952396508370185,"y":38.883035397842072}},{"attributes":{"LOCATION":"BURRVILLE ELEMENTARY SCHOOL","StAddr":"801 DIVISION AVENUE NE","USER_VOTING_SPACE":"Multi-Purpose Room","STATUS":"Active","HOURS":"7:00 AM to 8:00 PM"},"geometry":{"x":-76.924461435528045,"y":38.900573222052444}},{"attributes":{"LOCATION":"KELLY MILLER MIDDLE SCHOOL","StAddr":"301 49TH STREET NE","USER_VOTING_SPACE":"Multi-Purpose Room","STATUS":"Active","HOURS":"7:00 AM to 8:00 PM"},"geometry":{"x":-76.932457413412465,"y":38.893322871467454}},{"attributes":{"LOCATION":"THOMAS  ELEMENTARY SCHOOL","StAddr":"650 ANACOSTIA AVENUE NE","USER_VOTING_SPACE":"Multi-Purpose Room","STATUS":"Active","HOURS":"7:00 AM to 8:00 PM"},"geometry":{"x":-76.9521775960734,"y":38.901327440202373}},{"attributes":{"LOCATION":"RIVER TERRACE EDUCATION CAMPUS","StAddr":"420 34TH STREET NE","USER_VOTING_SPACE":"Multi-Purpose Room","STATUS":"Active","HOURS":"7:00 AM to 8:00 PM"},"geometry":{"x":-76.957809821209054,"y":38.895436249278184}},{"attributes":{"LOCATION":"PLUMMER  ELEMENTARY SCHOOL","StAddr":"4601 TEXAS AVENUE SE","USER_VOTING_SPACE":"Multi-Purpose Room","STATUS":"Active","HOURS":"7:00 AM to 8:00 PM"},"geometry":{"x":-76.939936935332952,"y":38.88724765175742}},{"attributes":{"LOCATION":"NALLE ELEMENTARY SCHOOL","StAddr":"219 50TH STREET SE","USER_VOTING_SPACE":"Multi-Purpose Room","STATUS":"Active","HOURS":"7:00 AM to 8:00 PM"},"geometry":{"x":-76.930798763578423,"y":38.885961872247179}},{"attributes":{"LOCATION":"RIDGE ROAD COMMUNITY CENTER","StAddr":"830 RIDGE ROAD SE","USER_VOTING_SPACE":"Gymnasium","STATUS":"Active","HOURS":"7:00 AM to 8:00 PM"},"geometry":{"x":-76.94072531586265,"y":38.87644140845503}},{"attributes":{"LOCATION":"SOUSA MIDDLE SCHOOL","StAddr":"3650 ELY PLACE SE","USER_VOTING_SPACE":"Gymnasium","STATUS":"Active","HOURS":"7:00 AM to 8:00 PM"},"geometry":{"x":-76.953069998875336,"y":38.884000648879585}},{"attributes":{"LOCATION":"RANDLE-HIGHLANDS ELEMENTARY SCHOOL","StAddr":"1650 30TH STREET SE","USER_VOTING_SPACE":"Gymnasium","STATUS":"Active","HOURS":"7:00 AM to 8:00 PM"},"geometry":{"x":-76.96435855383109,"y":38.870099185756054}},{"attributes":{"LOCATION":"HILLCREST RECREATION CENTER","StAddr":"3100 DENVER STREET SE","USER_VOTING_SPACE":"Gymnasium","STATUS":"Active","HOURS":"7:00 AM to 8:00 PM"},"geometry":{"x":-76.962644369336275,"y":38.858813896559205}},{"attributes":{"LOCATION":"MOTEN ELEMENTARY SCHOOL","StAddr":"1565 MORRIS ROAD SE","USER_VOTING_SPACE":"Multi-Purpose Room","STATUS":"Active","HOURS":"7:00 AM to 8:00 PM"},"geometry":{"x":-76.9829459537973,"y":38.856663452975951}},{"attributes":{"LOCATION":"BALLOU SENIOR HIGH SCHOOL","StAddr":"3401 4TH STREET SE","USER_VOTING_SPACE":"Gymnasium","STATUS":"Active","HOURS":"7:00 AM to 8:00 PM"},"geometry":{"x":-77.001364778602778,"y":38.838519437849932}},{"attributes":{"LOCATION":"HENDLEY ELEMENTARY SCHOOL","StAddr":"425 CHESAPEAKE STREET SE","USER_VOTING_SPACE":"Auditorium","STATUS":"Active","HOURS":"7:00 AM to 8:00 PM"},"geometry":{"x":-76.999187122081338,"y":38.828993354593813}},{"attributes":{"LOCATION":"ARTHUR CAPPER COMMUNITY CENTER","StAddr":"1000 5TH STREET SE","USER_VOTING_SPACE":"Gymnasium","STATUS":"Active","HOURS":"7:00 AM to 8:00 PM"},"geometry":{"x":-76.999128832168552,"y":38.877912383764276}},{"attributes":{"LOCATION":"BOONE ELEMENTARY SCHOOL (FORMERLY ORR)","StAddr":"2200 MINNESOTA AVENUE SE","USER_VOTING_SPACE":"Multi-Purpose Room","STATUS":"Active","HOURS":"7:00 AM to 8:00 PM"},"geometry":{"x":-76.97389888245354,"y":38.872572085104032}},{"attributes":{"LOCATION":"GARRISON ELEMENTARY SCHOOL","StAddr":"1200 S STREET NW","USER_VOTING_SPACE":"Multi-Purpose Room","STATUS":"Active","HOURS":"7:00 AM to 8:00 PM"},"geometry":{"x":-77.028455698855026,"y":38.913839599836209}},{"attributes":{"LOCATION":"ANACOSTIA SENIOR  HIGH SCHOOL","StAddr":"1601 16TH STREET SE","USER_VOTING_SPACE":"Gymnasium","STATUS":"Active","HOURS":"7:00 AM to 8:00 PM"},"geometry":{"x":-76.983079526183118,"y":38.870091508751074}},{"attributes":{"LOCATION":"REEVES MUNICIPAL CENTER","StAddr":"2000 14TH STREET NW","USER_VOTING_SPACE":"Rear Lobby","STATUS":"Active","HOURS":"7:00 AM to 8:00 PM"},"geometry":{"x":-77.032517268399459,"y":38.917577089244475}},{"attributes":{"LOCATION":"JEFFERSON MIDDLE SCHOOL ACADEMY","StAddr":"801 7TH STREET SW","USER_VOTING_SPACE":"Gymnasium","STATUS":"Active","HOURS":"7:00 AM to 8:00 PM"},"geometry":{"x":-77.022941079639182,"y":38.879915220587804}},{"attributes":{"LOCATION":"CAPITOL MEMORIAL CHURCH","StAddr":"3150 CHESAPEAKE STREET NW","USER_VOTING_SPACE":"Fellowship Hall","STATUS":"Active","HOURS":"7:00 AM to 8:00 PM"},"geometry":{"x":-77.063965502086774,"y":38.950211017822838}},{"attributes":{"LOCATION":"MT. HOREB BAPTIST CHURCH","StAddr":"3015 EARL PLACE NE","USER_VOTING_SPACE":"Fellowship Hall","STATUS":"Active","HOURS":"7:00 AM to 8:00 PM"},"geometry":{"x":-76.962606037684083,"y":38.928242118221313}},{"attributes":{"LOCATION":"ALLEN A.M.E. CHURCH","StAddr":"2498 ALABAMA AVENUE SE","USER_VOTING_SPACE":"Chapel Multi-Purpose Room","STATUS":"Active","HOURS":"7:00 AM to 8:00 PM"},"geometry":{"x":-76.970285215750366,"y":38.856892613006309}},{"attributes":{"LOCATION":"ST. TIMOTHY'S EPISCOPAL CHURCH","StAddr":"3601 ALABAMA AVENUE SE","USER_VOTING_SPACE":"Multi- Purpose Room","STATUS":"Active","HOURS":"7:00 AM to 8:00 PM"},"geometry":{"x":-76.956094556396351,"y":38.8629970204552}},{"attributes":{"LOCATION":"ST. JOHN'S COLLEGE HIGH SCHOOL","StAddr":"2607 MILITARY ROAD NW","USER_VOTING_SPACE":"Gymnasium","STATUS":"Active","HOURS":"7:00 AM to 8:00 PM"},"geometry":{"x":-77.055169266399645,"y":38.962398641265324}},{"attributes":{"LOCATION":"UKRAINIAN NATIONAL SHRINE","StAddr":"4250 HAREWOOD ROAD NE","USER_VOTING_SPACE":"Shawel Room","STATUS":"Active","HOURS":"7:00 AM to 8:00 PM"},"geometry":{"x":-77.003501999356487,"y":38.939618327437913}},{"attributes":{"LOCATION":"COVENANT BAPTIST CHURCH","StAddr":"3845 SOUTH CAPITOL STREET SW","USER_VOTING_SPACE":"Church Hall","STATUS":"Active","HOURS":"7:00 AM to 8:00 PM"},"geometry":{"x":-77.008663581926044,"y":38.834018136178258}},{"attributes":{"LOCATION":"UNION TEMPLE BAPTIST CHURCH","StAddr":"1225 W STREET SE","USER_VOTING_SPACE":"Church Hall","STATUS":"Active","HOURS":"7:00 AM to 8:00 PM"},"geometry":{"x":-76.988953745918309,"y":38.864512312936867}},{"attributes":{"LOCATION":"FOUNDRY UNITED CHURCH","StAddr":"1500 16TH STREET NW","USER_VOTING_SPACE":"Community Room","STATUS":"Active","HOURS":"7:00 AM to 8:00 PM"},"geometry":{"x":-77.036999658217169,"y":38.910145091483656}},{"attributes":{"LOCATION":"CENTRAL TREATMENT FACILITY (CTF)","StAddr":"1901 E STREET SE","USER_VOTING_SPACE":"TBD","STATUS":"Removed","HOURS":"7:00 AM to 8:00 PM"},"geometry":{"x":-76.9757358864903,"y":38.882721608120256}},{"attributes":{"LOCATION":"COLUMBIA HEIGHTS COMMUNITY CENTER","StAddr":"1480 GIRARD STREET NW","USER_VOTING_SPACE":"Gymnasium","STATUS":"Active","HOURS":"7:00 AM to 8:00 PM"},"geometry":{"x":-77.035054132437523,"y":38.925153710133607}},{"attributes":{"LOCATION":"PRINCE HALL CENTER (MASONIC TEMPLE)","StAddr":"1000 U STREET NW","USER_VOTING_SPACE":"Ballroom","STATUS":"Active","HOURS":"7:00 AM to 8:00 PM"},"geometry":{"x":-77.026304477417014,"y":38.916695657421748}},{"attributes":{"LOCATION":"HARDY MIDDLE SCHOOL","StAddr":"1819 35TH STREET NW","USER_VOTING_SPACE":"Gymnasium","STATUS":"Active","HOURS":"7:00 AM to 8:00 PM"},"geometry":{"x":-77.068629237981625,"y":38.915403062299177}},{"attributes":{"LOCATION":"SUPER VOTE CENTER - CAPITOL ONE SPORTS ARENA","StAddr":"601 F STREET NW","USER_VOTING_SPACE":"Concourse Area","STATUS":"Active","HOURS":"7:00 AM to 8:00 PM"},"geometry":{"x":-77.020956936442,"y":38.897947661868521}},{"attributes":{"LOCATION":"SUPER VOTE CENTER - OMNI SHOREHAM HOTEL","StAddr":"2500 CALVERT STREET NW","USER_VOTING_SPACE":"Ballroom","STATUS":"Active","HOURS":"7:00 AM to 8:00 PM"},"geometry":{"x":-77.0538205255336,"y":38.922631540445629}},{"attributes":{"LOCATION":"SUPER VOTE CENTER - UNIVERSITY OF THE DISTRICT OF COLUMBIA","StAddr":"4200 CONNECTICUT AVENUE NW","USER_VOTING_SPACE":"TBD","STATUS":"Active","HOURS":"7:00 AM to 8:00 PM"},"geometry":{"x":-77.064407273351421,"y":38.94412829337751}},{"attributes":{"LOCATION":"IDA B. WELLS MIDDLE SCHOOL","StAddr":"405 SHERIDAN STREET NW","USER_VOTING_SPACE":"Gymnasium","STATUS":"Active","HOURS":"7:00 AM to 8:00 PM"},"geometry":{"x":-77.019287017841279,"y":38.966599713642019}},{"attributes":{"LOCATION":"EMERY HEIGHTS COMMUNITY CENTER","StAddr":"5801 GEORGIA AVENUE NW","USER_VOTING_SPACE":"Gymnasium","STATUS":"Active","HOURS":"7:00 AM to 8:00 PM"},"geometry":{"x":-77.0278783198993,"y":38.958825027482874}},{"attributes":{"LOCATION":"TURKEY THICKET RECREATION CENTER","StAddr":"1100 MICHIGAN AVENUE NE","USER_VOTING_SPACE":"Gymnasium","STATUS":"Active","HOURS":"7:00 AM to 8:00 PM"},"geometry":{"x":-76.992792392441672,"y":38.938112152148783}},{"attributes":{"LOCATION":"SUPER VOTE CENTER - DOCK 5 @ UNION MARKET","StAddr":"1309 5TH STREET NE","USER_VOTING_SPACE":"Event Space","STATUS":"Active","HOURS":"7:00 AM to 8:00 PM"},"geometry":{"x":-76.997652546200527,"y":38.908724143751357}},{"attributes":{"LOCATION":"KING GREENLEAF RECREATION CENTER","StAddr":"201 N STREET SW","USER_VOTING_SPACE":"Gymnasium","STATUS":"Active","HOURS":"7:00 AM to 8:00 PM"},"geometry":{"x":-77.012757697031446,"y":38.875090890434691}},{"attributes":{"LOCATION":"SHERWOOD RECREATION CENTER","StAddr":"640 10TH STREET NE","USER_VOTING_SPACE":"Gymnasium","STATUS":"Active","HOURS":"7:00 AM to 8:00 PM"},"geometry":{"x":-76.993169426920176,"y":38.898602358685231}},{"attributes":{"LOCATION":"DEANWOOD RECREATION CENTER","StAddr":"1350 49TH STREET NE","USER_VOTING_SPACE":"Gymnasium","STATUS":"Active","HOURS":"7:00 AM to 8:00 PM"},"geometry":{"x":-76.9321578454485,"y":38.908452416377813}},{"attributes":{"LOCATION":"BENNING STODDERT RECREATION CENTER","StAddr":"100 STODDERT PLACE SE","USER_VOTING_SPACE":"Gymnasium","STATUS":"Active","HOURS":"7:00 AM to 8:00 PM"},"geometry":{"x":-76.948221423488491,"y":38.8888961879129}},{"attributes":{"LOCATION":"MALCOLM X OPPORTUNITY CENTER","StAddr":"1351 ALABAMA AVENUE SE","USER_VOTING_SPACE":"Gymnasium","STATUS":"Active","HOURS":"7:00 AM to 8:00 PM"},"geometry":{"x":-76.9861488076626,"y":38.844986601059652}},{"attributes":{"LOCATION":"FEREBEE-HOPE RECREATION CENTER","StAddr":"3999 8TH STREET SE","USER_VOTING_SPACE":"Gymnasium","STATUS":"Active","HOURS":"7:00 AM to 8:00 PM"},"geometry":{"x":-76.995165709999611,"y":38.832351343079125}},{"attributes":{"LOCATION":"CENTRAL DETENTION FACILITY (CDF)","StAddr":"1901 D STREET SE","USER_VOTING_SPACE":"TBD","STATUS":"Removed","HOURS":"7:00 AM to 8:00 PM"},"geometry":{"x":-76.976381185688027,"y":38.883438357612249}},{"attributes":{"LOCATION":"SUPER VOTE CENTER - WASHINGTON NATIONALS PARK","StAddr":"1500 SOUTH CAPITOL STREET SE","USER_VOTING_SPACE":"Concourse Area","STATUS":"Active","HOURS":"7:00 AM to 8:00 PM"},"geometry":{"x":-77.008529036331282,"y":38.872367224165139}},{"attributes":{"LOCATION":"FORT STENVENS RECREATION CENTER","StAddr":"1327 Van Buren Street, NW","USER_VOTING_SPACE":"Gymnasium","STATUS":"Active","HOURS":"7:00 AM to 8:00 PM"},"geometry":{"x":-77.031216638698751,"y":38.970255132972191}},{"attributes":{"LOCATION":"BRIGHTWOOD EDUCATION CAMPUS","StAddr":"1300 Nicholson Street, NW","USER_VOTING_SPACE":"Gymnasium","STATUS":"Active","HOURS":"7:00 AM to 8:00 PM"},"geometry":{"x":-77.031170370593074,"y":38.960422235659451}},{"attributes":{"LOCATION":"DUNBAR SENIOR HIGH SCHOOL","StAddr":"101 N Street, NW","USER_VOTING_SPACE":"Armory","STATUS":"Active","HOURS":"7:00 AM to 8:00 PM"},"geometry":{"x":-77.0131729995519,"y":38.9075776769923}},{"attributes":{"LOCATION":"DREW ELEMENTARY SCHOOL","StAddr":"5600 Eads Street, NE","USER_VOTING_SPACE":"Multi-Purpose Room","STATUS":"Active","HOURS":"7:00 AM to 8:00 PM"},"geometry":{"x":-76.919796921796973,"y":38.896013941437644}},{"attributes":{"LOCATION":"THERAPEUTIC RECREATION CENTER","StAddr":"3030 G Street, SE","USER_VOTING_SPACE":"Gymnasium","STATUS":"Active","HOURS":"7:00 AM to 8:00 PM"},"geometry":{"x":-76.963338980955612,"y":38.880948971253218}},{"attributes":{"LOCATION":"TURNER ELEMENTARY SCHOOL","StAddr":"3264 Stanton Road, SE","USER_VOTING_SPACE":"Gymnasium","STATUS":"Active","HOURS":"7:00 AM to 8:00 PM"},"geometry":{"x":-76.980260953819467,"y":38.847681470977271}},{"attributes":{"LOCATION":"SUPER VOTE CENTER! Entertainment and Sports Arena","StAddr":"1100 Oak Drive, SE","USER_VOTING_SPACE":"Concourse Area","STATUS":"Active","HOURS":"7:00 AM to 8:00 PM"},"geometry":{"x":-76.991069641427231,"y":38.846805597730068}}]}